#------------------------------------------------------------
~VERSION INFORMATION
VERS.               2.0  :CWLS LOG ASCII STANDARD - VERSION 2.0
WRAP.                NO  :ONE LINE PER DEPTH STEP
#------------------------------------------------------------
~WELL INFORMATION
STRT.M         0.000000  :FIRST INDEX VALUE
STOP.M          186.000  :LAST INDEX VALUE
STEP.M         0.100000  :STEP
NULL.           -999.25  :NULL VALUE
COMP.  FANTASY COAL LTD  :Company
WELL.            ALT118  :Well
FLD.        Cassa North  :Field
LOC.               T123  :LOC
SRVC.     First Logging  :SRVC
CTRY.        Mozambique  :Country
PROV.              Tete  :Province
STAT.                    :State
CNTY.                    :County
DATE.       29-OCT-2012  :Date
UWI.          123456789  :UWI
#------------------------------------------------------------
~CURVE INFORMATION
DEPT.M                   :DEPTH
RPOR.PERC                :SANDST NEUTRON POROSITY
GRDE.GAPI                :GAMMA FROM DENSITY TOOL
MC4F.US/M                :40 CM TRANSIT TIME R2R4
MC2F.US/M                :20 CM TRANSIT TIME R1R2
CADE.MM                  :CALIPER FROM DENSITY TOOL
DECR.G/C3                :DENSITY CORRECTION
CODE.G/C3                :COMPENSATED DENSITY
#------------------------------------------------------------
~PARAMETER INFORMATION
Water Level.  36m        :WATER LEVEL  
DrillerTD.    185.58m    :TOTAL DEPTH DRILLER
Logger TD.    185.7m     :TOTAL DEPTH LOGGER
Elevation.    55.2m      :ELEVATION          
Casing size.  4"         :CASING SIZE
Casing Weight. STEEL     :CASING TYPE
Casing From.  G.L.       :CASING FROM
Casing To.    30m        :CASING TO
Bit size.     HQ(96mm)   :BIT SIZE
#------------------------------------------------------------
~OTHER
#------------------------------------------------------------
~A   DEPT[M]        RPOR        GRDE        MC4F        MC2F        CADE        DECR        CODE
# ...
     74.7000     29.8200     95.3000     325.540     305.130     102.250  -0.0200000     2.49000
     74.8000     30.0000     87.1800     331.450     331.700     102.250    0.000000     2.51000
     74.9000     31.8400     107.230     347.190     361.230     102.260   0.0200000     2.49000
     75.0000     32.4900     85.7500     355.560     359.260     102.300   0.0200000     2.51000
     75.1000     30.3100     79.3900     346.260     351.390     102.310    0.000000     2.47000
     75.2000     30.3000     97.5200     336.860     336.620     102.280    0.000000     2.49000
     75.3000     29.1000     97.6800     329.970     330.720     102.310   0.0100000     2.53000
     75.4000     26.5700     87.0200     324.060     324.810     102.290    0.000000     2.50000
     75.5000     29.3800     95.7700     329.970     319.890     102.290    0.000000     2.50000
     75.6000     33.0000     98.0000     332.430     332.680     102.300  -0.0100000     2.47000
     75.7000     32.4000     108.340     330.950     346.460     102.260    0.000000     2.47000
     75.8000     32.2300     90.6800     332.430     331.700     102.310   0.0200000     2.52000
     75.9000     29.7100     107.700     329.480     323.830     102.300   0.0100000     2.51000
     76.0000     28.1900     101.660     319.140     330.720     102.360   0.0200000     2.56000
     76.1000     30.1700     97.3600     308.810     320.870     102.340    0.000000     2.56000
     76.2000     31.2400     80.9800     306.840     289.380     102.400   0.0100000     2.58000
     76.3000     27.9300     69.3600     311.270     293.310     102.520   0.0200000     2.59000
     76.4000     29.0000     78.5900     318.160     335.640     102.510   0.0100000     2.52000
     76.5000     33.2600     79.0700     324.060     344.500     102.560    0.000000     2.50000
     76.6000     33.0600     86.8600     322.590     318.910     102.520    0.000000     2.51000
     76.7000     29.8700     72.8600     313.780     300.200     102.560  -0.0100000     2.48000
     76.8000     27.2700     78.4300     315.700     314.970     102.690    0.000000     2.50000
     76.9000     28.2400     87.5000     325.540     333.670     102.720   0.0100000     2.50000
     77.0000     29.8000     83.6800     333.410     338.590     102.740   0.0100000     2.47000
     77.1000     28.0400     72.7000     332.920     337.610     102.670   0.0100000     2.49000
     77.2000     27.3900     69.6800     328.990     329.730     102.710   0.0100000     2.51000
     77.3000     26.8600     79.8600     326.030     324.810     102.750   0.0100000     2.53000
     77.4000     26.6800     77.9500     317.170     325.790     102.770  -0.0100000     2.50000
     77.5000     28.7500     78.5900     320.180     311.130     102.870  -0.0100000     2.50000
     77.6000     26.9800     78.4300     320.130     313.000     102.930  -0.0100000     2.50000
     77.7000     28.2700     93.8600     316.190     335.640     102.980    0.000000     2.51000
     77.8000     28.9800     92.5900     326.180     326.780     103.030    0.000000     2.51000
     77.9000     29.5200     115.980     328.000     329.730     103.150   0.0100000     2.53000
     78.0000     31.7000     106.430     326.030     347.450     103.140   0.0100000     2.52000
     78.1000     30.4800     84.0000     327.510     346.460     103.140   0.0100000     2.51000
     78.2000     27.2400     88.4500     330.950     325.800     103.160   0.0100000     2.52000
     78.3000     26.1300     105.320     326.080     327.760     103.170   0.0200000     2.56000
     78.4000     29.8100     86.2300     327.020     331.700     103.130   0.0100000     2.55000
     78.5000     32.6200     94.1800     330.460     328.750     103.200   0.0100000     2.54000
     78.6000     32.2100     88.7700     326.030     329.730     103.220   0.0200000     2.58000
     78.7000     31.9900     102.140     323.570     329.730     103.210   0.0100000     2.54000
     78.8000     30.5400     101.340     323.080     316.940     102.950   0.0100000     2.53000
     78.9000     34.0500     101.500     327.510     317.920     102.920    0.000000     2.51000
     79.0000     32.1000     110.090     331.450     333.670     102.930   0.0100000     2.51000
     79.1000     29.8600     78.2700     337.890     348.430     102.950   0.0100000     2.52000
     79.2000     30.9500     114.700     339.320     343.510     102.610   0.0100000     2.51000
     79.3000     33.0100     104.360     338.340     336.620     101.920    0.000000     2.51000
     79.4000     31.2600     99.7500     336.370     342.530     101.920   0.0200000     2.57000
     79.5000     30.5800     90.3600     336.370     342.530     101.930   0.0200000     2.58000
     79.6000     31.6200     98.8000     318.160     343.610     101.950  -0.0100000     2.52000
     79.7000     33.7700     83.2000     312.250     305.130     101.950  -0.0100000     2.51000
     79.8000     32.7700     93.7000     315.700     297.250     101.930   0.0100000     2.56000
     79.9000     27.2100     111.680     313.240     328.750     101.910   0.0100000     2.55000
     80.0000     28.0700     109.140     328.000     341.540     101.930   0.0100000     2.53000
     80.1000     33.5800     136.340     328.000     327.760     101.880  -0.0100000     2.49000
     80.2000     32.5400     107.390     329.970     326.780     101.910    0.000000     2.51000
     80.3000     28.8500     109.300     330.460     335.640     101.900    0.000000     2.51000
     80.4000     32.1700     106.270     335.380     338.590     101.890   0.0100000     2.53000
     80.5000     36.2400     126.800     336.860     340.560     101.880   0.0100000     2.54000
     80.6000     35.5600     121.230     332.430     338.590     101.870   0.0100000     2.53000
     80.7000     36.7200     133.480     332.920     326.780     101.910   0.0200000     2.56000
     80.8000     36.0400     130.300     336.370     330.720     101.850    0.000000     2.51000
     80.9000     35.0500     117.890     339.810     349.420     101.880    0.000000     2.51000
     81.0000     36.4900     127.430     349.650     348.430     101.910  -0.0100000     2.48000
     81.1000     37.1900     133.950     353.100     348.430     101.870  -0.0100000     2.48000
     81.2000     36.4400     129.500     361.470     362.310     101.880    0.000000     2.47000
     81.3000     35.3800     127.430     358.510     372.050     101.900    0.000000     2.50000
     81.4000     36.1300     127.910     361.470     364.180     101.890  -0.0100000     2.48000
     81.5000     35.0100     133.800     358.610     349.420     101.870    0.000000     2.51000
     81.6000     36.2300     132.360     354.080     354.340     101.860    0.000000     2.51000
     81.7000     33.1000     133.950     362.450     362.210     101.900    0.000000     2.53000
     81.8000     34.0800     123.450     367.860     368.120     101.890   0.0100000     2.53000
     81.9000     36.6300     113.750     371.800     372.150     101.850    0.000000     2.51000
     82.0000     37.2200     119.320     370.820     372.050     101.880   0.0100000     2.55000
     82.1000     38.7800     120.910     374.750     369.100     101.900    0.000000     2.52000
     82.2000     39.7400     123.450     376.330     376.980     101.850   0.0100000     2.54000
     82.3000     39.5400     125.050     382.630     381.900     101.890    0.000000     2.51000
     82.4000     42.4000     115.500     390.010     386.820     101.870   0.0100000     2.53000
     82.5000     37.2700     126.950     392.470     392.720     102.280  -0.0100000     2.46000
     82.6000     35.4800     111.050     395.910     395.680     101.350    0.000000     2.49000
     82.7000     38.2000     122.500     396.410     398.630     101.380    0.000000     2.49000
     82.8000     37.3400     119.160     396.900     394.690     101.410  -0.0100000     2.45000
     82.9000     38.7400     117.410     410.680     389.770     101.590  -0.0100000     2.37000
