#------------------------------------------------------------
~VERSION INFORMATION
VERS.               2.0  :CWLS LOG ASCII STANDARD - VERSION 2.0
WRAP.                NO  :ONE LINE PER DEPTH STEP
#------------------------------------------------------------
~WELL INFORMATION
STRT.M         0.000000  :FIRST INDEX VALUE
STOP.M          186.000  :LAST INDEX VALUE
STEP.M         0.100000  :STEP
NULL.           -999.25  :NULL VALUE
COMP.  FANTASY COAL LTD  :Company
WELL.            ALT118  :Well
FLD.        Cassa North  :Field
LOC.               T123  :LOC
SRVC.     First Logging  :SRVC
CTRY.        Mozambique  :Country
PROV.              Tete  :Province
STAT.                    :State
CNTY.                    :County
DATE.       29-OCT-2012  :Date
UWI.          123456789  :UWI
#------------------------------------------------------------
~CURVE INFORMATION
DEPT.M                   :DEPTH
RPOR.PERC                :SANDST NEUTRON POROSITY
GRDE.GAPI                :GAMMA FROM DENSITY TOOL
MC4F.US/M                :40 CM TRANSIT TIME R2R4
MC2F.US/M                :20 CM TRANSIT TIME R1R2
CADE.MM                  :CALIPER FROM DENSITY TOOL
DECR.G/C3                :DENSITY CORRECTION
CODE.G/C3                :COMPENSATED DENSITY
#------------------------------------------------------------
~PARAMETER INFORMATION
Water Level.  36m        :WATER LEVEL  
DrillerTD.    185.58m    :TOTAL DEPTH DRILLER
Logger TD.    185.7m     :TOTAL DEPTH LOGGER
Elevation.    55.2m      :ELEVATION          
Casing size.  4"         :CASING SIZE
Casing Weight. STEEL     :CASING TYPE
Casing From.  G.L.       :CASING FROM
Casing To.    30m        :CASING TO
Bit size.     HQ(96mm)   :BIT SIZE
#------------------------------------------------------------
~OTHER
#------------------------------------------------------------
~A   DEPT[M]        RPOR        GRDE        MC4F        MC2F        CADE        DECR        CODE
# ...
     41.5000     33.9800     83.5200     395.910     371.070     103.770   0.0100000     2.52000
     41.6000     34.9100     60.9300     397.880     412.410     103.720    0.000000     2.48000
     41.7000     37.4001     77.4804     414.219     424.220     103.720   0.0000038     2.48000
     41.8000     38.1900     63.1600     415.110     414.380     103.720  -0.0100000     2.46000
     41.9000     42.4300     65.8600     408.710     408.470     103.760    0.000000     2.47000
     42.0000     38.8900     68.0900     412.150     412.410     103.720    0.000000     2.45000
     42.1000     37.4200     66.9800     421.500     418.320     103.710    0.000000     2.44000
     42.2000     41.4796     85.2696     424.460     433.180     103.770   0.0100038     2.47000
     42.3000     44.3500     94.9800     426.430     436.030     103.720    0.000000     2.41000
     42.4000     41.9500     68.7300     429.380     433.080     103.540   0.0100000     2.44000
     42.5000     41.6500     72.2300     423.030     434.060     102.960  -0.0100000     2.43000
     42.6000     39.9700     61.4100     411.170     419.300     102.470  -0.0200000     2.41000
     42.7000     37.0106     80.3394     396.900     394.691     102.450   0.0100000     2.50000
     42.8000     35.9900     63.3200     379.670     379.930     102.420   0.0300000     2.52000
     42.9000     32.5100     69.3600     370.320     372.060     102.270   0.0100000     2.47000
     43.0000     29.9600     70.8000     365.890     365.170     102.060   0.0100000     2.46000
     43.1000     28.3300     59.8200     359.990     358.280     101.860   0.0100000     2.47000
     43.2000     26.7499     55.3625     356.050     356.310     101.730   0.0100000     2.48000
     43.3000     27.5000     62.8400     346.700     347.450     101.730    0.000000     2.46000
     43.4000     30.4100     54.5700     344.240     336.620     101.740   0.0100000     2.48000
     43.5000     31.7500     62.6800     339.810     336.620     101.740   0.0100000     2.50000
     43.6000     29.6900     73.5000     331.940     341.540     101.730   0.0200000     2.53000
     43.7000     28.1203     47.8903     327.510     327.761     101.720    0.000000     2.47000
     43.8000     26.8500     52.5000     327.020     314.970     101.710   0.0100000     2.52000
     43.9000     25.3600     52.3400     327.020     325.800     101.700    0.000000     2.49000
     44.0000     28.4100     69.0500     335.870     338.590     101.420  -0.0100000     2.46000
     44.1000     29.5000     88.1400     346.700     345.480     101.410   0.0100000     2.51000
     44.2000     30.7400     58.3914     330.951     354.339     101.390   0.0100038     2.55000
     44.3000     31.0300     42.6400     304.380     320.870     101.420   0.0100000     2.60000
     44.4000     28.1400     42.1600     275.840     258.870     101.400    0.000000     2.63000
     44.5000     24.9800     31.9800     248.770     232.290     101.400  -0.0100000     2.65000
     44.6000     23.9400     36.7500     232.040     232.290     101.330  -0.0100000     2.65000
     44.7000     22.2700     43.4282     231.540     228.450     101.410  -0.0100000     2.63000
     44.8000     21.4300     44.5500     250.240     223.430     101.600  -0.0100000     2.58000
     44.9000     23.3600     53.6100     276.820     260.840     101.570    0.000000     2.53000
     45.0000     25.9600     51.2300     301.480     319.890     101.560   0.0100000     2.49000
     45.1000     29.1300     64.7500     327.510     336.620     101.560    0.000000     2.43000
     45.2000     31.8699     56.7999     337.350     329.730     101.530   0.0200000     2.45000
     45.3000     33.6900     59.9800     337.840     333.670     101.450   0.0200000     2.49000
     45.4000     30.6400     59.1800     335.870     337.610     101.450   0.0100000     2.44000
     45.5000     29.8500     67.7700     330.950     334.650     101.450   0.0200000     2.48000
     45.6000     30.3900     59.6600     329.970     321.860     101.430   0.0100000     2.46000
     45.7000     27.5699     64.9110     312.251     323.830     101.500   0.0100000     2.47000
     45.8000     24.5900     60.1400     294.590     307.100     101.520   0.0300000     2.55000
     45.9000     23.5500     61.0900     292.080     268.710     101.560   0.0100000     2.53000
     46.0000     23.4300     57.4300     285.190     276.580     101.570   0.0100000     2.52000
     46.1000     26.1200     74.9300     293.550     302.170     101.550   0.0200000     2.51000
     46.2000     29.3800     79.5502     318.159     313.990     101.520   0.0100000     2.47000
     46.3000     30.6900     66.6600     333.410     335.740     101.500   0.0400000     2.50000
     46.4000     29.7000     67.1400     339.320     354.340     101.560   0.0200000     2.46000
     46.5000     29.7100     56.9500     347.690     352.370     101.500   0.0100000     2.43000
     46.6000     30.4900     53.9300     348.230     344.500     101.530    0.000000     2.40000
     46.7000     32.2997     69.9986     348.180     351.390     101.510   0.0100000     2.44000
     46.8000     30.3300     58.0700     347.690     359.260     101.540    0.000000     2.44000
     46.9000     27.8900     52.8200     343.750     347.450     101.540    0.000000     2.44000
     47.0000     27.9200     49.9500     337.840     340.560     101.540    0.000000     2.47000
     47.1000     26.7800     48.5200     326.520     334.650     101.500   0.0200000     2.52000
     47.2000     30.2600     61.0882     331.939     322.840     101.420    0.000000     2.47000
     47.3000     30.8700     67.3000     328.490     329.730     101.410   0.0100000     2.50000
     47.4000     29.8100     70.3200     326.030     344.600     101.490    0.000000     2.47000
     47.5000     30.6200     46.6100     304.380     324.810     101.510   0.0300000     2.58000
     47.6000     31.6500     56.9500     297.490     268.710     101.440  -0.0100000     2.48000
     47.7000     29.1299     62.3573     296.010     266.739     101.260  -0.0100038     2.48000
     47.8000     28.5100     56.8000     304.380     317.920     101.250   0.0100000     2.52000
     47.9000     31.2300     52.6600     322.590     337.610     101.290   0.0100000     2.55000
     48.0000     33.5500     41.5200     305.360     308.080     101.300  -0.0300000     2.54000
     48.1000     34.0300     39.7700     297.000     245.090     101.550  -0.0300000     2.56000
     48.2000     32.4102     34.2012     285.680     259.849     104.110  -0.0100000     2.58000
     48.3000     28.4500     42.0000     288.140     313.980     102.250   0.0200000     2.53000
     48.4000     26.9000     44.5500     304.870     309.060     100.510   0.0200000     2.47000
     48.5000     28.4100     61.4100     298.970     290.360     100.870   0.0200000     2.48000
     48.6000     27.0000     75.4100     297.000     293.320     100.910   0.0300000     2.48000
     48.7000     28.4699     69.2012     307.820     304.139     100.900   0.0200000     2.49000
     48.8000     28.7300     65.3900     314.710     318.910     100.830   0.0100000     2.51000
     48.9000     26.3100     76.6800     318.650     317.920     101.360    0.000000     2.49000
     49.0000     25.7400     77.4800     325.050     320.870     101.320    0.000000     2.48000
     49.1000     27.4000     72.7000     327.020     333.670     101.400   0.0100000     2.48000
     49.2000     30.0096     57.7508     326.030     336.620     101.390    0.000000     2.45000
     49.3000     30.1100     75.5700     330.460     325.800     101.290    0.000000     2.46000
     49.4000     31.8900     75.7300     332.430     328.750     101.190    0.000000     2.48000
     49.5000     31.6800     75.2500     339.810     342.530     101.210   0.0100000     2.50000
     49.6000     33.0500     75.5700     343.750     351.480     101.190    0.000000     2.48000
     49.7000     33.1198     61.5715     345.230     348.431     101.190  -0.0100000     2.44000
