#------------------------------------------------------------
~VERSION INFORMATION
VERS.               2.0  :CWLS LOG ASCII STANDARD - VERSION 2.0
WRAP.                NO  :ONE LINE PER DEPTH STEP
#------------------------------------------------------------
~WELL INFORMATION
STRT.M         0.000000  :FIRST INDEX VALUE
STOP.M          186.000  :LAST INDEX VALUE
STEP.M         0.100000  :STEP
NULL.           -999.25  :NULL VALUE
COMP.  FANTASY COAL LTD  :Company
WELL.            ALT118  :Well
FLD.        Cassa North  :Field
LOC.               T123  :LOC
SRVC.     First Logging  :SRVC
CTRY.        Mozambique  :Country
PROV.              Tete  :Province
STAT.                    :State
CNTY.                    :County
DATE.       29-OCT-2012  :Date
UWI.          123456789  :UWI
#------------------------------------------------------------
~CURVE INFORMATION
DEPT.M                   :DEPTH
RPOR.PERC                :SANDST NEUTRON POROSITY
GRDE.GAPI                :GAMMA FROM DENSITY TOOL
MC4F.US/M                :40 CM TRANSIT TIME R2R4
MC2F.US/M                :20 CM TRANSIT TIME R1R2
CADE.MM                  :CALIPER FROM DENSITY TOOL
DECR.G/C3                :DENSITY CORRECTION
CODE.G/C3                :COMPENSATED DENSITY
#------------------------------------------------------------
~PARAMETER INFORMATION
Water Level.  36m        :WATER LEVEL  
DrillerTD.    185.58m    :TOTAL DEPTH DRILLER
Logger TD.    185.7m     :TOTAL DEPTH LOGGER
Elevation.    55.2m      :ELEVATION          
Casing size.  4"         :CASING SIZE
Casing Weight. STEEL     :CASING TYPE
Casing From.  G.L.       :CASING FROM
Casing To.    30m        :CASING TO
Bit size.     HQ(96mm)   :BIT SIZE
#------------------------------------------------------------
~OTHER
#------------------------------------------------------------
~A   DEPT[M]        RPOR        GRDE        MC4F        MC2F        CADE        DECR        CODE
# ...
     49.8000     33.7600     64.7500     338.340     342.530     100.930   0.0100000     2.48000
     49.9000     33.7200     70.8000     323.670     331.700     101.000    0.000000     2.48000
     50.0000     30.4900     55.2000     300.930     303.160     101.010   0.0100000     2.58000
     50.1000     26.2900     43.2700     279.770     275.600     99.7800  -0.0100000     2.62000
     50.2000     25.5801     36.9104     264.521     262.800     99.2899  -0.00999619     2.68000
     50.3000     25.0100     30.0700     261.560     253.950     100.280   0.0100000     2.69000
     50.4000     25.4200     60.6100     278.790     262.900     100.410   0.0100000     2.58000
     50.5000     27.6500     76.2000     293.060     304.140     100.680   0.0200000     2.53000
     50.6000     31.3900     74.4500     310.780     329.730     100.860   0.0200000     2.49000
     50.7000     29.2901     67.1409     316.730     322.839     100.820   0.0200000     2.49000
     50.8000     26.4800     70.4800     320.130     315.950     100.860    0.000000     2.45000
     50.9000     30.3600     66.8200     316.680     317.920     100.720    0.000000     2.46000
     51.0000     29.5700     73.8200     321.110     319.890     100.710    0.000000     2.44000
     51.1000     26.1000     78.7500     325.050     321.860     100.640    0.000000     2.42000
     51.2000     28.4398     66.6604     324.560     324.810     100.640   0.0100000     2.45000
     51.3000     29.1800     66.6600     324.560     324.810     100.660   0.0100000     2.46000
     51.4000     29.2700     76.0500     311.270     324.810     100.940  -0.0100000     2.43000
     51.5000     31.4900     80.0200     310.330     296.270     101.800  -0.0100000     2.44000
     51.6000     31.8100     63.0000     316.190     291.350     101.000    0.000000     2.45000
     51.7000     29.8400     82.7285     316.190     319.889     100.960    0.000000     2.43000
     51.8000     28.7500     74.9300     323.080     324.810     100.980   0.0100000     2.45000
     51.9000     29.9000     70.1600     315.750     317.920     100.990   0.0200000     2.53000
     52.0000     29.9800     81.4500     313.730     285.440     100.960  -0.0100000     2.45000
     52.1000     26.4700     75.5700     315.210     302.170     100.940    0.000000     2.47000
     52.2000     24.8701     69.5204     324.559     335.640     100.990   0.0100000     2.47000
     52.3000     27.2200     57.2700     335.870     333.670     100.970   0.0100000     2.45000
     52.4000     27.9800     58.7000     333.410     334.650     101.020    0.000000     2.43000
     52.5000     29.1600     73.0200     331.940     332.690     101.040   0.0100000     2.43000
     52.6000     29.3200     56.1600     327.020     326.780     101.020    0.000000     2.42000
     52.7000     29.8399     54.5704     320.620     322.841     100.960  0.00999619     2.44000
     52.8000     29.2900     49.8000     318.700     317.920     101.010   0.0100000     2.46000
     52.9000     29.1800     69.3600     321.600     317.920     101.080   0.0100000     2.44000
     53.0000     31.0900     58.7000     327.020     319.890     101.060   0.0100000     2.45000
     53.1000     31.6500     63.4800     327.020     329.730     101.240   0.0100000     2.45000
     53.2000     32.5000     59.0198     329.480     333.670     101.350   0.0100000     2.45000
     53.3000     34.2000     49.9500     327.020     326.780     101.340    0.000000     2.43000
     53.4000     32.6100     73.9800     316.190     321.860     101.320   0.0100000     2.48000
     53.5000     31.4400     72.8600     295.520     311.030     101.360   0.0100000     2.52000
     53.6000     28.1200     80.0200     286.170     284.460     101.330    0.000000     2.51000
     53.7000     26.3000     67.9288     287.150     275.600     101.300    0.000000     2.49000
     53.8000     28.4500     72.5500     289.120     304.140     101.380  -0.0100000     2.49000
     53.9000     26.3300     54.4100     301.920     314.080     101.320    0.000000     2.51000
     54.0000     26.5200     81.1400     311.760     310.050     101.410   0.0100000     2.54000
     54.1000     29.4500     66.3400     313.240     311.030     101.390   0.0200000     2.54000
     54.2000     31.3302     73.0214     316.730     317.920     101.400   0.0100038     2.50000
     54.3000     30.8600     67.9300     324.060     321.860     101.390  -0.0100000     2.42000
     54.4000     30.5600     78.2700     326.520     328.750     101.360    0.000000     2.44000
     54.5000     30.1700     70.9500     328.490     334.650     101.400    0.000000     2.46000
     54.6000     30.6900     78.2700     323.570     328.750     101.280    0.000000     2.47000
     54.7000     28.0204     58.8592     317.670     318.911     101.000    0.000000     2.45000
     54.8000     28.4300     62.0500     308.320     312.020     101.020   0.0100000     2.49000
     54.9000     28.7900     52.0200     294.090     303.160     100.990   0.0100000     2.52000
     55.0000     27.7100     38.3400     286.660     281.500     101.050    0.000000     2.51000
     55.1000     27.5100     41.8400     283.220     271.660     101.160   0.0100000     2.54000
     55.2000     30.1196     64.9089     292.570     286.429     101.240   0.0100000     2.52000
     55.3000     30.0900     94.8200     305.860     310.050     101.190   0.0100000     2.51000
     55.4000     31.4900     80.6600     319.140     326.780     101.190   0.0100000     2.48000
     55.5000     31.9400     66.0200     321.110     327.760     101.180   0.0100000     2.51000
     55.6000     30.7700     76.3600     314.710     317.040     101.100   0.0100000     2.51000
     55.7000     32.2100     61.5715     307.330     306.110     101.140  -0.0100000     2.48000
     55.8000     32.4900     61.0900     302.410     304.140     101.200    0.000000     2.51000
     55.9000     28.0000     61.7300     290.650     302.170     101.130    0.000000     2.53000
     56.0000     26.3700     52.3400     272.390     280.520     101.090    0.000000     2.58000
     56.1000     26.3400     46.9300     260.090     246.070     101.110   0.0100000     2.64000
     56.2000     25.5700     49.7994     259.600     245.089     101.180  -0.0100000     2.63000
     56.3000     27.4600     31.8200     264.520     268.710     101.240  -0.0200000     2.60000
     56.4000     28.2700     33.4100     280.760     282.490     101.160  -0.0200000     2.59000
     56.5000     30.0900     46.3000     279.280     289.380     101.300  -0.0100000     2.59000
     56.6000     32.9500     56.4800     266.980     275.600     101.330    0.000000     2.61000
     56.7000     30.2303     57.7503     267.469     244.101     101.310  -0.0100000     2.59000
     56.8000     27.5200     53.7700     272.390     255.910     101.370  -0.0100000     2.56000
     56.9000     27.3200     61.2500     285.680     295.280     101.390  -0.0100000     2.53000
     57.0000     30.3700     47.5700     302.410     309.060     101.500  -0.0100000     2.52000
     57.1000     35.2800     56.9500     306.350     307.090     101.480    0.000000     2.56000
     57.2000     32.2904     58.7004     307.820     305.130     101.490  -0.0100000     2.53000
     57.3000     30.7100     48.6800     309.790     309.060     101.510   0.0100000     2.55000
     57.4000     31.7000     57.9100     311.270     311.030     101.500    0.000000     2.51000
     57.5000     33.8000     66.9800     311.760     313.000     101.510    0.000000     2.48000
     57.6000     33.5100     57.5900     312.750     314.970     101.490    0.000000     2.49000
     57.7000     33.3099     69.0492     314.710     312.020     101.490    0.000000     2.48000
     57.8000     31.5700     52.0200     314.220     313.000     101.470    0.000000     2.48000
     57.9000     29.6200     60.1400     313.730     312.020     101.460  -0.0100000     2.48000
     58.0000     29.5600     64.7500     314.220     314.970     101.460    0.000000     2.51000
