#------------------------------------------------------------
~VERSION INFORMATION
VERS.               2.0  :CWLS LOG ASCII STANDARD - VERSION 2.0
WRAP.                NO  :ONE LINE PER DEPTH STEP
#------------------------------------------------------------
~WELL INFORMATION
STRT.M         0.000000  :FIRST INDEX VALUE
STOP.M          186.000  :LAST INDEX VALUE
STEP.M         0.100000  :STEP
NULL.           -999.25  :NULL VALUE
COMP.  FANTASY COAL LTD  :Company
WELL.            ALT118  :Well
FLD.        Cassa North  :Field
LOC.               T123  :LOC
SRVC.     First Logging  :SRVC
CTRY.        Mozambique  :Country
PROV.              Tete  :Province
STAT.                    :State
CNTY.                    :County
DATE.       29-OCT-2012  :Date
UWI.          123456789  :UWI
#------------------------------------------------------------
~CURVE INFORMATION
DEPT.M                   :DEPTH
RPOR.PERC                :SANDST NEUTRON POROSITY
GRDE.GAPI                :GAMMA FROM DENSITY TOOL
MC4F.US/M                :40 CM TRANSIT TIME R2R4
MC2F.US/M                :20 CM TRANSIT TIME R1R2
CADE.MM                  :CALIPER FROM DENSITY TOOL
DECR.G/C3                :DENSITY CORRECTION
CODE.G/C3                :COMPENSATED DENSITY
#------------------------------------------------------------
~PARAMETER INFORMATION
Water Level.  36m        :WATER LEVEL  
DrillerTD.    185.58m    :TOTAL DEPTH DRILLER
Logger TD.    185.7m     :TOTAL DEPTH LOGGER
Elevation.    55.2m      :ELEVATION          
Casing size.  4"         :CASING SIZE
Casing Weight. STEEL     :CASING TYPE
Casing From.  G.L.       :CASING FROM
Casing To.    30m        :CASING TO
Bit size.     HQ(96mm)   :BIT SIZE
#------------------------------------------------------------
~OTHER
#------------------------------------------------------------
~A   DEPT[M]        RPOR        GRDE        MC4F        MC2F        CADE        DECR        CODE
# ...
     99.6000     33.9100     108.020     331.450     325.790     102.900  -0.0100000     2.50000
     99.7000     33.2600     103.410     332.920     323.830     103.020  -0.0100000     2.51000
     99.8000     32.5700     119.160     333.910     334.650     103.070    0.000000     2.54000
     99.9000     31.4100     111.200     336.370     337.700     103.030   0.0100000     2.55000
     100.000     33.9700     106.430     344.240     332.680     103.080   0.0100000     2.56000
     100.100     37.8500     113.430     338.830     339.570     102.990   0.0100000     2.54000
     100.200     37.5900     110.410     338.930     338.590     103.040    0.000000     2.52000
     100.300     34.6900     113.110     340.300     338.590     103.040   0.0100000     2.54000
     100.400     34.0300     103.890     338.340     341.540     103.020    0.000000     2.50000
     100.500     33.3800     103.250     334.400     345.480     103.030    0.000000     2.51000
     100.600     31.7400     109.930     334.400     344.490     103.080   0.0100000     2.53000
     100.700     31.8000     110.570     333.410     340.560     103.050   0.0100000     2.53000
     100.800     31.3600     115.820     336.370     344.490     102.990   0.0100000     2.53000
     100.900     33.2900     90.5200     341.780     346.460     103.070    0.000000     2.49000
     101.000     32.8600     118.050     345.720     349.420     102.990  -0.0100000     2.45000
     101.100     35.1200     119.160     344.730     343.510     103.040    0.000000     2.50000
     101.200     35.0500     90.6800     348.180     340.560     103.020    0.000000     2.52000
     101.300     33.7200     117.410     348.180     347.450     103.060    0.000000     2.51000
     101.400     34.1900     88.6100     348.670     349.510     103.020   0.0100000     2.51000
     101.500     34.6400     111.520     350.640     349.420     103.050   0.0200000     2.55000
     101.600     31.5100     112.160     339.320     352.370     102.930   0.0100000     2.50000
     101.700     30.4100     102.300     314.810     342.530     103.090   0.0200000     2.60000
     101.800     34.2800     59.1800     313.730     283.470     103.060  -0.0100000     2.53000
     101.900     32.7200     70.0000     312.250     289.380     103.120  -0.0100000     2.51000
     102.000     28.5200     78.4300     314.220     341.540     103.080  -0.0100000     2.48000
     102.100     28.3800     84.0000     339.810     340.560     103.110   0.0100000     2.50000
     102.200     30.6700     93.2300     337.840     333.670     103.130   0.0100000     2.52000
     102.300     32.0500     85.7500     337.840     334.650     103.050    0.000000     2.49000
     102.400     31.2000     108.500     340.800     338.590     103.100   0.0200000     2.53000
     102.500     31.0300     117.730     344.240     346.460     103.110    0.000000     2.48000
     102.600     32.1500     120.110     351.130     347.450     103.140   0.0100000     2.48000
     102.700     32.8700     111.520     358.020     356.310     103.140  -0.0100000     2.44000
     102.800     31.8200     110.250     349.160     369.100     103.430    0.000000     2.50000
     102.900     31.2100     96.0900     318.650     350.400     102.780  -0.0100000     2.54000
     103.000     30.2300     56.9500     286.170     274.610     102.870  -0.0200000     2.60000
     103.100     28.6300     71.9100     262.060     225.400     102.850    0.000000     2.67000
     103.200     29.6100     80.6600     271.900     251.970     102.950   0.0200000     2.65000
     103.300     27.6100     112.160     306.890     316.940     103.110   0.0100000     2.54000
     103.400     28.8200     120.910     333.910     357.290     103.150  -0.0100000     2.45000
     103.500     33.8800     101.820     347.190     348.430     103.250  -0.0100000     2.46000
     103.600     33.9500     108.340     344.240     336.620     103.230    0.000000     2.51000
     103.700     33.2400     123.140     335.880     332.680     102.820  -0.0100000     2.49000
     103.800     32.8200     101.180     332.920     332.680     102.890   0.0100000     2.53000
     103.900     31.6700     88.1400     340.800     325.790     102.800  -0.0100000     2.49000
     104.000     31.0900     106.430     338.830     342.530     102.740   0.0200000     2.56000
     104.100     31.5200     94.8200     341.340     348.430     102.780   0.0200000     2.55000
     104.200     32.4900     71.7500     336.370     337.600     102.680    0.000000     2.50000
     104.300     31.1600     99.2700     328.990     326.780     102.760    0.000000     2.51000
     104.400     30.4200     82.0900     326.520     318.900     102.770   0.0100000     2.52000
     104.500     30.9400     93.8600     325.050     322.840     102.860   0.0100000     2.51000
     104.600     30.5800     86.5500     325.540     331.800     102.810   0.0200000     2.52000
     104.700     31.7600     104.680     314.710     327.760     102.810   0.0100000     2.51000
     104.800     29.8400     76.3600     313.730     302.170     102.760   0.0100000     2.52000
     104.900     26.3700     71.1100     311.760     301.190     102.720    0.000000     2.51000
     105.000     27.2300     89.0900     308.320     323.830     102.670    0.000000     2.49000
     105.100     29.0100     82.2500     318.160     319.890     102.680    0.000000     2.47000
     105.200     30.3400     95.6100     321.110     319.890     102.750   0.0100000     2.52000
     105.300     32.3700     100.550     317.670     325.790     102.670   0.0100000     2.52000
     105.400     30.5400     98.4800     325.050     327.760     102.660   0.0200000     2.53000
     105.500     30.9700     93.5500     319.640     330.710     102.730   0.0100000     2.52000
     105.600     32.1200     85.4300     322.590     320.870     102.630   0.0200000     2.51000
     105.700     31.1500     87.6600     323.570     318.900     102.590    0.000000     2.47000
     105.800     31.5200     88.1400     322.590     327.760     102.640   0.0200000     2.52000
     105.900     30.4700     79.8600     327.510     329.730     102.600   0.0200000     2.52000
     106.000     28.0400     74.3000     323.570     327.760     102.590    0.000000     2.48000
     106.100     27.2800     78.2700     307.820     319.890     102.660   0.0300000     2.60000
     106.200     29.0300     56.0000     275.840     293.310     103.030    0.000000     2.57000
     106.300     27.0200     56.6400     272.880     240.160     103.240    0.000000     2.57000
     106.400     26.5700     71.1100     274.360     248.040     103.430   0.0100000     2.59000
     106.500     26.3800     90.8400     293.060     309.060     103.230   0.0200000     2.54000
     106.600     29.0400     94.8200     321.600     340.560     103.180   0.0200000     2.51000
     106.700     30.0300     90.5200     322.590     338.590     103.270   0.0200000     2.55000
     106.800     28.1400     87.8200     320.130     306.110     102.860   0.0200000     2.56000
     106.900     27.6300     87.9800     312.250     306.110     103.010   0.0200000     2.57000
     107.000     27.5200     111.520     315.700     316.940     102.800   0.0100000     2.52000
     107.100     28.9200     113.430     330.950     319.890     103.650   0.0100000     2.51000
     107.200     27.3700     85.2700     331.940     340.560     104.000   0.0100000     2.54000
     107.300     27.8100     89.8900     332.920     339.570     103.800  -0.0100000     2.47000
     107.400     29.3300     82.4100     328.000     322.840     103.060   0.0200000     2.54000
     107.500     31.2100     93.2300     323.080     311.030     103.060   0.0300000     2.58000
     107.600     31.9100     84.6400     317.670     322.840     103.100    0.000000     2.51000
     107.700     30.0400     75.7300     327.020     315.950     103.220    0.000000     2.50000
     107.800     31.3400     92.5900     334.400     324.810     103.230    0.000000     2.50000
