#------------------------------------------------------------
~VERSION INFORMATION
VERS.               2.0  :CWLS LOG ASCII STANDARD - VERSION 2.0
WRAP.                NO  :ONE LINE PER DEPTH STEP
#------------------------------------------------------------
~WELL INFORMATION
STRT.M         0.000000  :FIRST INDEX VALUE
STOP.M          186.000  :LAST INDEX VALUE
STEP.M         0.100000  :STEP
NULL.           -999.25  :NULL VALUE
COMP.  FANTASY COAL LTD  :Company
WELL.            ALT118  :Well
FLD.        Cassa North  :Field
LOC.               T123  :LOC
SRVC.     First Logging  :SRVC
CTRY.        Mozambique  :Country
PROV.              Tete  :Province
STAT.                    :State
CNTY.                    :County
DATE.       29-OCT-2012  :Date
UWI.          123456789  :UWI
#------------------------------------------------------------
~CURVE INFORMATION
DEPT.M                   :DEPTH
RPOR.PERC                :SANDST NEUTRON POROSITY
GRDE.GAPI                :GAMMA FROM DENSITY TOOL
MC4F.US/M                :40 CM TRANSIT TIME R2R4
MC2F.US/M                :20 CM TRANSIT TIME R1R2
CADE.MM                  :CALIPER FROM DENSITY TOOL
DECR.G/C3                :DENSITY CORRECTION
CODE.G/C3                :COMPENSATED DENSITY
#------------------------------------------------------------
~PARAMETER INFORMATION
Water Level.  36m        :WATER LEVEL  
DrillerTD.    185.58m    :TOTAL DEPTH DRILLER
Logger TD.    185.7m     :TOTAL DEPTH LOGGER
Elevation.    55.2m      :ELEVATION          
Casing size.  4"         :CASING SIZE
Casing Weight. STEEL     :CASING TYPE
Casing From.  G.L.       :CASING FROM
Casing To.    30m        :CASING TO
Bit size.     HQ(96mm)   :BIT SIZE
#------------------------------------------------------------
~OTHER
#------------------------------------------------------------
~A   DEPT[M]        RPOR        GRDE        MC4F        MC2F        CADE        DECR        CODE
# ...
     33.2000  0.000118226     55.2003     114.420     113.200     100.980  -0.0800000     2.37000
     33.3000   -0.600000     56.0000     114.420     113.200     100.950  -0.0800000     2.40000
     33.4000   -0.620000     48.8400     114.420     113.200     101.040  -0.0700000     2.39000
     33.5000   -0.500000     49.9500     114.420     113.200     101.140  -0.0700000     2.33000
     33.6000    0.110000     51.0700     114.420     113.200     101.200  -0.0500000     2.31000
     33.7000     1.58002     58.2309     114.420     113.200     101.190  -0.0400000     2.27000
     33.8000     2.41000     62.8400     114.420     113.200     101.240  -0.0300000     2.22000
     33.9000     2.69000     46.4500     114.420     113.200     100.360  -0.0100000     2.24000
     34.0000     3.23000     67.1400     114.420     113.200     100.490  -0.0100000     2.27000
     34.1000     3.37000     74.7700     114.420     113.200     101.840  -0.0200000     2.25000
     34.2000     3.55001     70.1587     114.420     113.200     101.800  -0.0300000     2.25000
     34.3000     3.33000     75.5700     114.420     113.200     101.830  -0.0400000     2.26000
     34.4000     3.39000     68.4100     114.420     113.200     102.080  -0.0400000     2.27000
     34.5000     4.51000     98.3200     114.420     113.200     102.040  -0.0400000     2.27000
     34.6000     4.69000     77.4800     114.420     113.200     102.030  -0.0400000     2.26000
     34.7000     5.02012     70.1626     114.420     113.200     102.110  -0.0500000     2.23000
     34.8000     5.00000     70.6400     114.420     113.200     101.830  -0.0500000     2.24000
     34.9000     4.34000     62.6800     114.420     113.200     101.660  -0.0600000     2.26000
     35.0000     3.99000     83.5200     114.420     113.200     101.610  -0.0600000     2.28000
     35.1000     3.41000     82.2500     114.420     113.200     101.600  -0.0500000     2.31000
     35.2000     3.50008     72.8626     114.420     113.200     101.580  -0.0400000     2.32000
     35.3000     3.78000     71.5900     114.420     113.200     101.590  -0.0500000     2.28000
     35.4000     2.94000     77.1600     114.420     113.200     101.640  -0.0600000     2.25000
     35.5000     2.86000     67.7700     114.420     113.200     101.770  -0.0500000     2.29000
     35.6000     3.17000     71.9100     114.420     113.200     101.880  -0.0700000     2.30000
     35.7000     1.24001     63.4783     114.420     113.200     101.990  -0.0800038     2.27000
     35.8000   -0.420000     75.4100     114.420     113.200     101.980  -0.0300000     2.40000
     35.9000     1.37000     58.8600     114.420     113.200     102.140   0.0200000     2.44000
     36.0000     7.92000     73.5000     114.420     113.200     102.390   0.0200000     2.37000
     36.1000     15.0700     69.3600     114.420     575.800     102.610   0.0100000     2.29000
     36.2000     20.7198     93.8593     114.420     575.800     102.710   0.0100000     2.27000
     36.3000     24.5900     98.6400     114.420     575.800     102.950    0.000000     2.23000
     36.4000     36.9600     101.500     430.360     472.450     103.420   0.0100000     2.27000
     36.5000     40.0200     85.2700     640.990     420.290     104.310    0.000000     2.29000
     36.6000     39.4900     88.1400     640.990     426.190     103.410    0.000000     2.28000
     36.7000     41.4296     91.4792     640.990     448.829     103.560    0.000000     2.30000
     36.8000     45.4000     108.980     607.530     464.580     103.670    0.000000     2.29000
     36.9000     43.0300     106.750     585.380     475.400     103.720    0.000000     2.30000
     37.0000     38.4100     95.6100     610.480     469.500     103.790    0.000000     2.31000
     37.1000     39.7500     99.7500     656.080     463.590     103.960    0.000000     2.32000
     37.2000     40.2607     96.2507     628.199     471.471     103.990  0.00999619     2.35000
     37.3000     35.6000     105.950     606.540     471.470     104.070    0.000000     2.36000
     37.4000     34.8900     116.610     434.300     449.810     104.140    0.000000     2.36000
     37.5000     33.2700     119.000     452.020     438.990     104.230    0.000000     2.38000
     37.6000     32.6200     105.800     435.280     428.160     104.230   0.0100000     2.42000
     37.7000     35.4403     105.953     442.170     434.070     104.330   0.0100000     2.40000
     37.8000     35.1800     108.180     445.130     450.800     104.450    0.000000     2.37000
     37.9000     35.0800     136.660     449.060     462.610     104.410    0.000000     2.38000
     38.0000     36.6900     125.840     451.520     461.620     104.440    0.000000     2.38000
     38.1000     39.8000     112.800     449.060     453.850     104.400    0.000000     2.40000
     38.2000     44.4899     126.000     444.140     450.800     104.530   0.0100000     2.41000
     38.3000     45.1600     133.950     439.710     447.840     104.570  -0.0100000     2.37000
     38.4000     44.4500     126.950     422.640     443.910     104.550   0.0100000     2.47000
     38.5000     39.9000     124.250     409.200     417.330     104.600    0.000000     2.47000
     38.6000     36.6200     103.250     404.280     388.790     104.540    0.000000     2.51000
     38.7000     34.9602     92.4308     405.759     399.620     104.570    0.000000     2.50000
     38.8000     41.0300     136.820     418.550     423.240     104.620  -0.0100000     2.43000
     38.9000     43.6200     117.410     433.320     439.080     104.690    0.000000     2.44000
     39.0000     43.6300     137.610     436.760     448.830     104.770    0.000000     2.47000
     39.1000     44.9700     122.660     439.220     445.880     104.800  -0.0100000     2.43000
     39.2000     43.4003     120.912     443.210     442.920     104.990    0.000000     2.44000
     39.3000     39.4000     121.230     446.600     449.810     104.940  -0.0100000     2.44000
     39.4000     41.3100     100.700     431.840     456.700     104.970  -0.0100000     2.51000
     39.5000     43.2900     94.0200     604.080     426.190     104.940  -0.0300000     2.50000
     39.6000     41.9700     99.5900     636.070     555.130     107.100  -0.0300000     2.45000
     39.7000     42.7397     121.862     642.470     656.180     106.110  0.00999619     2.47000
     39.8000     42.5500     136.020     646.900     656.180     104.800    0.000000     2.35000
     39.9000     41.1700     143.020     656.170     656.180     104.900  -0.0100000     2.32000
     40.0000     42.9600     112.640     557.330     625.010     105.080   0.0100000     2.35000
     40.1000     44.6800     99.5900     539.610     591.540     105.050   0.0100000     2.35000
     40.2000     47.5494     113.268     539.611     500.010     105.060   0.0100000     2.39000
     40.3000     44.0300     94.1800     398.870     489.180     105.040   0.0100000     2.42000
     40.4000     42.2400     76.2000     405.760     445.870     105.060  -0.0100000     2.39000
     40.5000     41.7500     81.3000     435.780     444.890     105.100    0.000000     2.43000
     40.6000     40.9000     93.2300     411.660     453.750     103.720   0.0100000     2.48000
     40.7000     39.6599     91.9516     421.008     435.152     103.770  -0.0199962     2.46000
     40.8000     38.3600     59.8200     417.570     391.740     103.700    0.000000     2.53000
     40.9000     40.7400     75.5700     397.880     401.580     103.730    0.000000     2.53000
     41.0000     42.3500     68.5700     404.820     412.410     103.730  -0.0100000     2.44000
     41.1000     38.3700     93.7000     415.600     413.390     103.700   0.0100000     2.48000
     41.2000     36.5803     95.3004     411.170     420.280     103.710    0.000000     2.46000
     41.3000     35.1800     56.6400     395.420     419.300     103.730    0.000000     2.49000
     41.4000     35.1000     77.9500     392.470     372.150     103.720    0.000000     2.50000
