#------------------------------------------------------------
~VERSION INFORMATION
VERS.               2.0  :CWLS LOG ASCII STANDARD - VERSION 2.0
WRAP.                NO  :ONE LINE PER DEPTH STEP
#------------------------------------------------------------
~WELL INFORMATION
STRT.M         0.000000  :FIRST INDEX VALUE
STOP.M          186.000  :LAST INDEX VALUE
STEP.M         0.100000  :STEP
NULL.           -999.25  :NULL VALUE
COMP.  FANTASY COAL LTD  :Company
WELL.            ALT118  :Well
FLD.        Cassa North  :Field
LOC.               T123  :LOC
SRVC.     First Logging  :SRVC
CTRY.        Mozambique  :Country
PROV.              Tete  :Province
STAT.                    :State
CNTY.                    :County
DATE.       29-OCT-2012  :Date
UWI.          123456789  :UWI
#------------------------------------------------------------
~CURVE INFORMATION
DEPT.M                   :DEPTH
RPOR.PERC                :SANDST NEUTRON POROSITY
GRDE.GAPI                :GAMMA FROM DENSITY TOOL
MC4F.US/M                :40 CM TRANSIT TIME R2R4
MC2F.US/M                :20 CM TRANSIT TIME R1R2
CADE.MM                  :CALIPER FROM DENSITY TOOL
DECR.G/C3                :DENSITY CORRECTION
CODE.G/C3                :COMPENSATED DENSITY
#------------------------------------------------------------
~PARAMETER INFORMATION
Water Level.  36m        :WATER LEVEL  
DrillerTD.    185.58m    :TOTAL DEPTH DRILLER
Logger TD.    185.7m     :TOTAL DEPTH LOGGER
Elevation.    55.2m      :ELEVATION          
Casing size.  4"         :CASING SIZE
Casing Weight. STEEL     :CASING TYPE
Casing From.  G.L.       :CASING FROM
Casing To.    30m        :CASING TO
Bit size.     HQ(96mm)   :BIT SIZE
#------------------------------------------------------------
~OTHER
#------------------------------------------------------------
~A   DEPT[M]        RPOR        GRDE        MC4F        MC2F        CADE        DECR        CODE
# ...
     16.6000    -999.250     80.5000    -999.250    -999.250     103.520   -0.260000     1.80000
     16.7000    -999.250     65.2292    -999.250    -999.250     103.450   -0.260004     1.84000
     16.8000    -999.250     53.4500    -999.250    -999.250     103.480   -0.270000     1.91000
     16.9000    -999.250     45.6600    -999.250    -999.250     103.450   -0.270000     2.01000
     17.0000    -999.250     50.7500    -999.250    -999.250     103.500   -0.290000     2.05000
     17.1000    -999.250     42.3200    -999.250    -999.250     103.520   -0.290000     2.08000
     17.2000    -999.250     67.7688    -999.250    -999.250     103.500   -0.280000     2.12000
     17.3000    -999.250     66.5000    -999.250    -999.250     103.490   -0.280000     2.15000
     17.4000    -999.250     44.2300    -999.250    -999.250     103.420   -0.270000     2.21000
     17.5000    -999.250     51.5500    -999.250    -999.250     103.480   -0.270000     2.26000
     17.6000    -999.250     70.4800    -999.250    -999.250     103.550   -0.280000     2.24000
     17.7000    -999.250     56.1616    -999.250    -999.250     103.520   -0.280000     2.24000
     17.8000    -999.250     46.7700    -999.250    -999.250     103.480   -0.290000     2.22000
     17.9000    -999.250     59.3400    -999.250    -999.250     103.470   -0.280000     2.25000
     18.0000    -999.250     43.2700    -999.250    -999.250     103.530   -0.280000     2.25000
     18.1000    -999.250     43.1100    -999.250    -999.250     103.520   -0.290000     2.22000
     18.2000    -999.250     42.9495    -999.250    -999.250     103.520   -0.280000     2.25000
     18.3000    -999.250     46.1400    -999.250    -999.250     103.530   -0.260000     2.31000
     18.4000    -999.250     51.5500    -999.250    -999.250     103.540   -0.270000     2.27000
     18.5000    -999.250     56.6400    -999.250    -999.250     103.480   -0.280000     2.27000
     18.6000    -999.250     53.9300    -999.250    -999.250     103.500   -0.290000     2.25000
     18.7000    -999.250     58.8598    -999.250    -999.250     103.530   -0.270000     2.32000
     18.8000    -999.250     60.4500    -999.250    -999.250     103.510   -0.290000     2.25000
     18.9000    -999.250     54.4100    -999.250    -999.250     103.530   -0.280000     2.29000
     19.0000    -999.250     60.7700    -999.250    -999.250     103.520   -0.260000     2.33000
     19.1000    -999.250     55.3600    -999.250    -999.250     103.520   -0.260000     2.34000
     19.2000    -999.250     40.4100    -999.250    -999.250     103.520   -0.250000     2.37000
     19.3000    -999.250     81.9300    -999.250    -999.250     103.510   -0.260000     2.30000
     19.4000    -999.250     60.3000    -999.250    -999.250     103.460   -0.270000     2.26000
     19.5000    -999.250     63.0000    -999.250    -999.250     103.490   -0.240000     2.29000
     19.6000    -999.250     42.8000    -999.250    -999.250     103.510   -0.240000     2.22000
     19.7000    -999.250     61.8884    -999.250    -999.250     103.510   -0.260000     2.07000
     19.8000    -999.250     76.0500    -999.250    -999.250     103.480   -0.260000     2.01000
     19.9000    -999.250     49.6400    -999.250    -999.250     103.490   -0.250000     1.99000
     20.0000    -999.250     58.8600    -999.250    -999.250     103.480   -0.260000     1.95000
     20.1000    -999.250     63.0000    -999.250    -999.250     103.500   -0.250000     2.03000
     20.2000    -999.250     79.3906    -999.250    -999.250     103.610   -0.200004     2.22000
     20.3000    -999.250     43.5900    -999.250    -999.250     103.530   -0.220000     2.25000
     20.4000    -999.250     48.5200    -999.250    -999.250     103.440   -0.230000     2.26000
     20.5000    -999.250     57.4300    -999.250    -999.250     103.540   -0.230000     2.25000
     20.6000    -999.250     59.6600    -999.250    -999.250     103.510   -0.220000     2.26000
     20.7000    -999.250     44.2309    -999.250    -999.250     103.500   -0.220000     2.27000
     20.8000    -999.250     53.4500    -999.250    -999.250     103.500   -0.230000     2.23000
     20.9000    -999.250     62.3600    -999.250    -999.250     103.560   -0.220000     2.16000
     21.0000    -999.250     59.0200    -999.250    -999.250     103.510   -0.230000     2.07000
     21.1000    -999.250     48.3600    -999.250    -999.250     103.530   -0.300000     1.79000
     21.2000    -999.250     67.7689    -999.250    -999.250     103.510   -0.230004     2.04999
     21.3000    -999.250     67.9300    -999.250    -999.250     103.590   -0.210000     2.22000
     21.4000    -999.250     49.3200    -999.250    -999.250     103.560   -0.180000     2.39000
     21.5000    -999.250     41.3600    -999.250    -999.250     103.500   -0.200000     2.43000
     21.6000    -999.250     35.3200    -999.250    -999.250     103.500   -0.230000     2.35000
     21.7000    -999.250     50.5900    -999.250    -999.250     103.430   -0.240000     2.28001
     21.8000    -999.250     48.5200    -999.250    -999.250     103.530   -0.270000     2.11000
     21.9000    -999.250     48.0500    -999.250    -999.250     103.520   -0.280000     2.01000
     22.0000    -999.250     32.7700    -999.250    -999.250     103.520   -0.250000     2.11000
     22.1000    -999.250     36.1100    -999.250    -999.250     103.510   -0.250000     2.11000
     22.2000    -999.250     49.6399    -999.250    -999.250     103.500   -0.250000     2.05000
     22.3000    -999.250     50.2700    -999.250    -999.250     103.530   -0.240000     2.02000
     22.4000    -999.250     52.0200    -999.250    -999.250     103.480   -0.260000     1.93000
     22.5000    -999.250     48.5200    -999.250    -999.250     103.510   -0.240000     2.03000
     22.6000    -999.250     50.4300    -999.250    -999.250     103.500   -0.230000     2.06000
     22.7000    -999.250     54.5704    -999.250    -999.250     103.490   -0.230000     2.07000
     22.8000    -999.250     58.0700    -999.250    -999.250     103.560   -0.250000     2.03000
     22.9000    -999.250     81.3000    -999.250    -999.250     103.460   -0.250000     2.03000
     23.0000    -999.250     68.8900    -999.250    -999.250     103.520   -0.240000     2.05000
     23.1000    -999.250     53.9300    -999.250    -999.250     103.520   -0.230000     2.12000
     23.2000    -999.250     63.9493    -999.250    -999.250     103.460   -0.249996     2.10000
     23.3000    -999.250     66.5000    -999.250    -999.250     103.560   -0.250000     2.11000
     23.4000    -999.250     61.8900    -999.250    -999.250     103.610   -0.260000     2.13000
     23.5000    -999.250     70.4800    -999.250    -999.250     103.540   -0.270000     2.14000
     23.6000    -999.250     71.7500    -999.250    -999.250     103.540   -0.260000     2.27000
     23.7000    -999.250     70.1611    -999.250    -999.250     103.550   -0.250000     2.36000
     23.8000    -999.250     54.5700    -999.250    -999.250     103.480   -0.250000     2.37000
     23.9000    -999.250     80.6600    -999.250    -999.250     103.540   -0.260000     2.33000
     24.0000    -999.250     73.8200    -999.250    -999.250     103.550   -0.260000     2.31000
     24.1000    -999.250     77.0000    -999.250    -999.250     103.530   -0.230000     2.38000
     24.2000    -999.250     64.1115    -999.250    -999.250     103.500   -0.239996     2.32001
     24.3000    -999.250     57.5900    -999.250    -999.250     103.540   -0.250000     2.20000
     24.4000    -999.250     70.6400    -999.250    -999.250     103.490   -0.240000     2.12000
     24.5000    -999.250     71.7500    -999.250    -999.250     103.530   -0.240000     2.05000
     24.6000    -999.250     55.6800    -999.250    -999.250     103.480   -0.230000     2.02000
     24.7000    -999.250     54.7302    -999.250    -999.250     103.470   -0.230000     2.02000
     24.8000    -999.250     60.9300    -999.250    -999.250     103.520   -0.220000     2.04000
