#------------------------------------------------------------
~VERSION INFORMATION
VERS.               2.0  :CWLS LOG ASCII STANDARD - VERSION 2.0
WRAP.                NO  :ONE LINE PER DEPTH STEP
#------------------------------------------------------------
~WELL INFORMATION
STRT.M         0.000000  :FIRST INDEX VALUE
STOP.M          186.000  :LAST INDEX VALUE
STEP.M         0.100000  :STEP
NULL.           -999.25  :NULL VALUE
COMP.  FANTASY COAL LTD  :Company
WELL.            ALT118  :Well
FLD.        Cassa North  :Field
LOC.               T123  :LOC
SRVC.     First Logging  :SRVC
CTRY.        Mozambique  :Country
PROV.              Tete  :Province
STAT.                    :State
CNTY.                    :County
DATE.       29-OCT-2012  :Date
UWI.          123456789  :UWI
#------------------------------------------------------------
~CURVE INFORMATION
DEPT.M                   :DEPTH
RPOR.PERC                :SANDST NEUTRON POROSITY
GRDE.GAPI                :GAMMA FROM DENSITY TOOL
MC4F.US/M                :40 CM TRANSIT TIME R2R4
MC2F.US/M                :20 CM TRANSIT TIME R1R2
CADE.MM                  :CALIPER FROM DENSITY TOOL
DECR.G/C3                :DENSITY CORRECTION
CODE.G/C3                :COMPENSATED DENSITY
#------------------------------------------------------------
~PARAMETER INFORMATION
Water Level.  36m        :WATER LEVEL  
DrillerTD.    185.58m    :TOTAL DEPTH DRILLER
Logger TD.    185.7m     :TOTAL DEPTH LOGGER
Elevation.    55.2m      :ELEVATION          
Casing size.  4"         :CASING SIZE
Casing Weight. STEEL     :CASING TYPE
Casing From.  G.L.       :CASING FROM
Casing To.    30m        :CASING TO
Bit size.     HQ(96mm)   :BIT SIZE
#------------------------------------------------------------
~OTHER
#------------------------------------------------------------
~A   DEPT[M]        RPOR        GRDE        MC4F        MC2F        CADE        DECR        CODE
# ...
     132.800     23.2800     71.1100     275.340     266.740     102.330   0.0200000     2.53000
     132.900     21.0500     65.3900     276.820     290.460     102.350   0.0100000     2.50000
     133.000     22.2100     70.3200     282.730     288.390     102.130   0.0100000     2.53000
     133.100     25.0000     56.9500     277.800     272.740     101.940    0.000000     2.50000
     133.200     23.9900     70.1600     271.010     270.770     101.960   0.0200000     2.54000
     133.300     23.0500     62.6800     269.440     269.690     102.120   0.0200000     2.55000
     133.400     23.7200     59.3400     273.420     265.750     102.360   0.0200000     2.52000
     133.500     23.5900     75.4100     273.420     276.580     102.100   0.0100000     2.52000
     133.600     24.5400     63.0000     274.850     283.470     101.860   0.0200000     2.52000
     133.700     24.7100     61.4100     285.190     275.590     101.920   0.0300000     2.54000
     133.800     26.5000     80.6600     288.630     284.450     102.340   0.0200000     2.52000
     133.900     26.2600     86.8600     291.090     303.150     102.050   0.0200000     2.51000
     134.000     24.8400     68.4100     296.510     300.200     101.780   0.0200000     2.50000
     134.100     24.4100     85.2700     292.570     294.300     101.620   0.0200000     2.49000
     134.200     25.6100     89.2500     284.690     285.440     102.110   0.0200000     2.50000
     134.300     28.2700     76.3600     284.200     276.580     102.350   0.0200000     2.50000
     134.400     27.1500     64.5900     284.690     287.410     101.860   0.0300000     2.51000
     134.500     23.3400     69.3600     288.630     295.280     101.610   0.0300000     2.49000
     134.600     24.4100     78.1100     293.550     293.410     101.630   0.0300000     2.49000
     134.700     27.7800     75.8900     289.620     294.300     101.620   0.0400000     2.53000
     134.800     27.8200     74.1400     285.680     288.390     101.610   0.0100000     2.48000
     134.900     25.4600     68.0900     284.740     280.520     101.590   0.0100000     2.50000
     135.000     24.7600     82.2500     279.280     280.520     101.640   0.0200000     2.52000
     135.100     26.3400     84.9500     280.270     280.520     101.920   0.0100000     2.50000
     135.200     27.5500     76.6800     283.220     282.480     102.280   0.0100000     2.51000
     135.300     28.7800     81.6100     285.680     285.440     101.510    0.000000     2.47000
     135.400     27.3400     72.3900     290.600     290.360     101.550   0.0200000     2.50000
     135.500     26.4000     59.0200     286.660     295.280     101.720   0.0200000     2.54000
     135.600     26.6600     63.4800     282.230     288.390     101.620   0.0100000     2.51000
     135.700     26.8200     64.4300     274.360     269.690     101.560   0.0100000     2.53000
     135.800     24.9700     56.1600     271.900     265.750     101.500   0.0100000     2.52000
     135.900     26.3600     55.0500     275.340     274.610     101.490    0.000000     2.50000
     136.000     28.0900     66.5000     281.740     284.450     101.600   0.0100000     2.52000
     136.100     27.7300     55.6800     281.740     287.500     101.700    0.000000     2.50000
     136.200     27.4200     78.5900     281.740     282.480     101.700   0.0200000     2.56000
     136.300     29.1700     63.8000     280.270     275.590     101.730    0.000000     2.50000
     136.400     31.0200     75.2500     278.350     279.530     101.520   0.0200000     2.54000
     136.500     29.0400     74.4500     279.280     283.470     101.370   0.0100000     2.48000
     136.600     29.4600     70.4800     283.710     284.450     101.330    0.000000     2.46000
     136.700     28.5500     88.3000     282.230     280.520     101.370   0.0100000     2.49000
     136.800     27.8600     77.3200     276.820     282.480     101.340  -0.0100000     2.45000
     136.900     26.9400     68.5700     273.380     276.580     101.390   0.0100000     2.49000
     137.000     24.1800     53.6100     265.010     267.720     101.310   0.0200000     2.58000
     137.100     25.7400     31.0200     265.500     257.880     101.300  -0.0100000     2.53000
     137.200     25.2000     41.5200     265.500     261.810     101.520   0.0100000     2.59000
     137.300     26.8400     39.4500     273.380     274.610     101.860    0.000000     2.50000
     137.400     26.7200     62.8400     278.300     285.440     102.140   0.0200000     2.50000
     137.500     25.7900     60.6100     282.730     285.440     101.990   0.0300000     2.54000
     137.600     27.8800     66.9800     286.170     282.580     102.350   0.0200000     2.51000
     137.700     28.5300     66.0200     286.170     285.440     103.100   0.0200000     2.52000
     137.800     26.5900     68.4100     288.140     292.330     102.740    0.000000     2.47000
     137.900     26.8600     62.6800     288.680     293.310     101.850   0.0100000     2.48000
     138.000     29.8400     71.2700     287.160     290.360     101.880   0.0100000     2.47000
     138.100     28.9300     70.4800     288.140     290.360     101.850   0.0200000     2.50000
     138.200     27.2600     58.7000     287.650     290.360     101.880   0.0300000     2.52000
     138.300     28.0800     67.1400     288.140     291.340     101.820   0.0100000     2.46000
     138.400     28.2700     73.5000     289.120     288.390     101.910   0.0100000     2.48000
     138.500     27.4100     75.0900     291.580     294.300     101.980    0.000000     2.45000
     138.600     26.8500     73.5000     290.600     295.280     101.850  -0.0100000     2.44000
     138.700     26.3700     77.4800     297.980     292.330     102.260    0.000000     2.47000
     138.800     25.7200     75.4100     294.050     301.180     101.720   0.0100000     2.51000
     138.900     26.6600     66.8200     291.090     296.260     101.700    0.000000     2.47000
     139.000     28.7800     63.0000     289.620     283.470     101.740   0.0200000     2.51000
     139.100     28.5700     68.0900     291.580     287.500     101.700   0.0100000     2.48000
     139.200     27.1800     84.6400     292.080     297.250     101.670   0.0300000     2.52000
     139.300     26.1600     71.2700     296.010     298.230     101.730   0.0200000     2.49000
     139.400     26.9300     87.9800     295.080     295.280     101.710   0.0100000     2.48000
     139.500     26.0000     81.3000     285.190     295.380     101.720   0.0100000     2.51000
     139.600     23.1600     68.7300     271.900     280.520     101.630    0.000000     2.49000
     139.700     21.6100     73.6600     262.060     251.970     101.660   0.0100000     2.55000
     139.800     21.5100     69.3600     247.390     247.050     101.680   0.0200000     2.60000
     139.900     21.5100     50.2700     241.390     247.050     101.680    0.000000     2.54000
     140.000     21.5400     50.4300     257.140     239.180     101.750   0.0100000     2.55000
     140.100     23.2900     62.6800     266.490     265.850     102.120   0.0100000     2.49000
     140.200     26.5900     72.8600     279.280     293.310     102.060   0.0100000     2.45000
     140.300     27.3800     66.6600     294.040     294.300     102.090   0.0100000     2.43000
     140.400     25.9100     82.2500     291.630     291.340     101.730   0.0200000     2.48000
     140.500     27.8000     70.1600     293.060     292.330     101.710   0.0200000     2.49000
     140.600     30.6000     72.0700     291.090     294.300     101.640   0.0100000     2.46000
     140.700     32.1700     74.7700     292.080     295.380     101.700   0.0100000     2.45000
     140.800     28.0000     54.4100     290.110     295.280     101.750   0.0200000     2.46000
     140.900     27.2200     63.1600     286.170     293.310     101.650   0.0300000     2.51000
     141.000     27.1500     43.7500     278.350     280.520     101.670    0.000000     2.46000
