#------------------------------------------------------------
~VERSION INFORMATION
VERS.               2.0  :CWLS LOG ASCII STANDARD - VERSION 2.0
WRAP.                NO  :ONE LINE PER DEPTH STEP
#------------------------------------------------------------
~WELL INFORMATION
STRT.M         0.000000  :FIRST INDEX VALUE
STOP.M          186.000  :LAST INDEX VALUE
STEP.M         0.100000  :STEP
NULL.           -999.25  :NULL VALUE
COMP.  FANTASY COAL LTD  :Company
WELL.            ALT118  :Well
FLD.        Cassa North  :Field
LOC.               T123  :LOC
SRVC.     First Logging  :SRVC
CTRY.        Mozambique  :Country
PROV.              Tete  :Province
STAT.                    :State
CNTY.                    :County
DATE.       29-OCT-2012  :Date
UWI.          123456789  :UWI
#------------------------------------------------------------
~CURVE INFORMATION
DEPT.M                   :DEPTH
RPOR.PERC                :SANDST NEUTRON POROSITY
GRDE.GAPI                :GAMMA FROM DENSITY TOOL
MC4F.US/M                :40 CM TRANSIT TIME R2R4
MC2F.US/M                :20 CM TRANSIT TIME R1R2
CADE.MM                  :CALIPER FROM DENSITY TOOL
DECR.G/C3                :DENSITY CORRECTION
CODE.G/C3                :COMPENSATED DENSITY
#------------------------------------------------------------
~PARAMETER INFORMATION
Water Level.  36m        :WATER LEVEL  
DrillerTD.    185.58m    :TOTAL DEPTH DRILLER
Logger TD.    185.7m     :TOTAL DEPTH LOGGER
Elevation.    55.2m      :ELEVATION          
Casing size.  4"         :CASING SIZE
Casing Weight. STEEL     :CASING TYPE
Casing From.  G.L.       :CASING FROM
Casing To.    30m        :CASING TO
Bit size.     HQ(96mm)   :BIT SIZE
#------------------------------------------------------------
~OTHER
#------------------------------------------------------------
~A   DEPT[M]        RPOR        GRDE        MC4F        MC2F        CADE        DECR        CODE
# ...
     8.30000    -999.250     93.7000    -999.250    -999.250     103.460   -0.310000     1.69000
     8.40000    -999.250     78.7412    -999.250    -999.250     103.460   -0.240000     1.96998
     8.50000    -999.250     54.7300    -999.250    -999.250     103.430   -0.240000     2.06000
     8.60000    -999.250     77.6400    -999.250    -999.250     103.380   -0.240000     2.08000
     8.70000    -999.250     72.0707    -999.250    -999.250     103.480   -0.230000     2.09000
     8.80000    -999.250     63.1600    -999.250    -999.250     103.460   -0.240000     2.05000
     8.90000    -999.250     78.5924    -999.250    -999.250     103.460   -0.220010     2.12999
     9.00000    -999.250     70.8000    -999.250    -999.250     103.450   -0.250000     2.09000
     9.10000    -999.250     72.3900    -999.250    -999.250     103.430   -0.250000     2.13000
     9.20000    -999.250     67.9292    -999.250    -999.250     103.480   -0.240000     2.19000
     9.30000    -999.250     93.7000    -999.250    -999.250     103.480   -0.250000     2.22000
     9.40000    -999.250     83.5247    -999.250    -999.250     103.510   -0.280000     2.18000
     9.50000    -999.250     106.430    -999.250    -999.250     103.430   -0.260000     2.28000
     9.60000    -999.250     87.9800    -999.250    -999.250     103.490   -0.300000     2.17000
     9.70000    -999.250     103.568    -999.250    -999.250     103.460   -0.290000     2.17000
     9.80000    -999.250     87.5000    -999.250    -999.250     103.520   -0.290000     2.11000
     9.90000    -999.250     89.7300    -999.250    -999.250     103.450   -0.270000     2.09000
     10.0000    -999.250     88.4500    -999.250    -999.250     103.450   -0.260000     2.10000
     10.1000    -999.250     87.3400    -999.250    -999.250     103.460   -0.250000     2.10000
     10.2000    -999.250     85.9105    -999.250    -999.250     103.470   -0.240000     2.15000
     10.3000    -999.250     83.2000    -999.250    -999.250     103.440   -0.250000     2.15000
     10.4000    -999.250     77.8000    -999.250    -999.250     103.440   -0.250000     2.16000
     10.5000    -999.250     80.6600    -999.250    -999.250     103.450   -0.250000     2.16000
     10.6000    -999.250     77.1600    -999.250    -999.250     103.480   -0.250000     2.17000
     10.7000    -999.250     87.6576    -999.250    -999.250     103.440   -0.279997     2.10000
     10.8000    -999.250     73.6600    -999.250    -999.250     103.450   -0.280000     2.03000
     10.9000    -999.250     75.5700    -999.250    -999.250     103.510   -0.300000     1.89000
     11.0000    -999.250     72.0700    -999.250    -999.250     103.440   -0.310000     1.74000
     11.1000    -999.250     90.0500    -999.250    -999.250     103.420   -0.320000     1.63000
     11.2000    -999.250     94.8208    -999.250    -999.250     103.450   -0.280000     1.78000
     11.3000    -999.250     91.4800    -999.250    -999.250     103.440   -0.230000     1.94000
     11.4000    -999.250     90.0500    -999.250    -999.250     103.500   -0.230000     2.00000
     11.5000    -999.250     89.8900    -999.250    -999.250     103.430   -0.230000     2.02000
     11.6000    -999.250     91.1600    -999.250    -999.250     103.430   -0.230000     2.01000
     11.7000    -999.250     73.1815    -999.250    -999.250     103.450   -0.230000     2.01000
     11.8000    -999.250     86.0700    -999.250    -999.250     103.470   -0.230000     1.99000
     11.9000    -999.250     97.5200    -999.250    -999.250     103.460   -0.250000     2.00000
     12.0000    -999.250     96.4100    -999.250    -999.250     103.420   -0.240000     2.05000
     12.1000    -999.250     91.9500    -999.250    -999.250     103.510   -0.240000     2.08000
     12.2000    -999.250     87.6582    -999.250    -999.250     103.470   -0.240000     2.09000
     12.3000    -999.250     83.0500    -999.250    -999.250     103.420   -0.240000     2.05000
     12.4000    -999.250     89.7300    -999.250    -999.250     103.430   -0.240000     2.07000
     12.5000    -999.250     86.5500    -999.250    -999.250     103.470   -0.240000     2.05000
     12.6000    -999.250     69.6800    -999.250    -999.250     103.500   -0.240000     2.03000
     12.7000    -999.250     78.4295    -999.250    -999.250     103.440   -0.240000     1.98000
     12.8000    -999.250     109.300    -999.250    -999.250     103.500   -0.240000     1.99000
     12.9000    -999.250     99.5900    -999.250    -999.250     103.530   -0.240000     1.98000
     13.0000    -999.250     100.550    -999.250    -999.250     103.480   -0.230000     2.00000
     13.1000    -999.250     85.9100    -999.250    -999.250     103.480   -0.250000     1.96000
     13.2000    -999.250     88.6108    -999.250    -999.250     103.470   -0.240000     1.97000
     13.3000    -999.250     69.5200    -999.250    -999.250     103.490   -0.240000     1.97000
     13.4000    -999.250     81.7700    -999.250    -999.250     103.510   -0.250000     1.97000
     13.5000    -999.250     79.3900    -999.250    -999.250     103.480   -0.240000     2.04000
     13.6000    -999.250     79.2300    -999.250    -999.250     103.520   -0.260000     2.04000
     13.7000    -999.250     87.5003    -999.250    -999.250     103.430   -0.289997     2.01000
     13.8000    -999.250     76.0500    -999.250    -999.250     103.520   -0.300000     1.98000
     13.9000    -999.250     101.340    -999.250    -999.250     103.470   -0.290000     1.98000
     14.0000    -999.250     90.3600    -999.250    -999.250     103.510   -0.280000     2.00000
     14.1000    -999.250     105.800    -999.250    -999.250     103.470   -0.300000     1.95000
     14.2000    -999.250     78.5900    -999.250    -999.250     103.510   -0.310000     1.94000
     14.3000    -999.250     81.1400    -999.250    -999.250     103.530   -0.310000     1.94000
     14.4000    -999.250     68.0900    -999.250    -999.250     103.510   -0.300000     1.97000
     14.5000    -999.250     100.550    -999.250    -999.250     103.430   -0.300000     1.96000
     14.6000    -999.250     100.860    -999.250    -999.250     103.450   -0.310000     1.95000
     14.7000    -999.250     77.9502    -999.250    -999.250     103.470   -0.310000     1.98000
     14.8000    -999.250     87.3400    -999.250    -999.250     103.470   -0.330000     1.93000
     14.9000    -999.250     80.8200    -999.250    -999.250     103.420   -0.290000     1.96000
     15.0000    -999.250     77.8000    -999.250    -999.250     103.450   -0.280000     1.85000
     15.1000    -999.250     95.9300    -999.250    -999.250     103.460   -0.260000     1.82000
     15.2000    -999.250     67.7695    -999.250    -999.250     103.530   -0.250000     1.81000
     15.3000    -999.250     76.2000    -999.250    -999.250     103.470   -0.230000     1.87000
     15.4000    -999.250     72.7000    -999.250    -999.250     103.450   -0.250000     1.80000
     15.5000    -999.250     77.8000    -999.250    -999.250     103.480   -0.240000     1.83000
     15.6000    -999.250     80.1800    -999.250    -999.250     103.450   -0.250000     1.85000
     15.7000    -999.250     61.5696    -999.250    -999.250     103.430   -0.240000     1.92000
     15.8000    -999.250     84.3200    -999.250    -999.250     103.450   -0.230000     1.98000
     15.9000    -999.250     79.2300    -999.250    -999.250     103.430   -0.240000     1.88000
     16.0000    -999.250     63.0000    -999.250    -999.250     103.440   -0.270000     1.77000
     16.1000    -999.250     68.8900    -999.250    -999.250     103.440   -0.260000     1.80000
     16.2000    -999.250     71.5900    -999.250    -999.250     103.490   -0.240000     1.87000
     16.3000    -999.250     70.1600    -999.250    -999.250     103.480   -0.240000     1.89000
     16.4000    -999.250     83.6800    -999.250    -999.250     103.480   -0.250000     1.84000
     16.5000    -999.250     77.9500    -999.250    -999.250     103.540   -0.240000     1.87000
