#------------------------------------------------------------
~VERSION INFORMATION
VERS.               2.0  :CWLS LOG ASCII STANDARD - VERSION 2.0
WRAP.                NO  :ONE LINE PER DEPTH STEP
#------------------------------------------------------------
~WELL INFORMATION
STRT.M         0.000000  :FIRST INDEX VALUE
STOP.M          186.000  :LAST INDEX VALUE
STEP.M         0.100000  :STEP
NULL.           -999.25  :NULL VALUE
COMP.  FANTASY COAL LTD  :Company
WELL.            ALT118  :Well
FLD.        Cassa North  :Field
LOC.               T123  :LOC
SRVC.     First Logging  :SRVC
CTRY.        Mozambique  :Country
PROV.              Tete  :Province
STAT.                    :State
CNTY.                    :County
DATE.       29-OCT-2012  :Date
UWI.          123456789  :UWI
#------------------------------------------------------------
~CURVE INFORMATION
DEPT.M                   :DEPTH
RPOR.PERC                :SANDST NEUTRON POROSITY
GRDE.GAPI                :GAMMA FROM DENSITY TOOL
MC4F.US/M                :40 CM TRANSIT TIME R2R4
MC2F.US/M                :20 CM TRANSIT TIME R1R2
CADE.MM                  :CALIPER FROM DENSITY TOOL
DECR.G/C3                :DENSITY CORRECTION
CODE.G/C3                :COMPENSATED DENSITY
#------------------------------------------------------------
~PARAMETER INFORMATION
Water Level.  36m        :WATER LEVEL  
DrillerTD.    185.58m    :TOTAL DEPTH DRILLER
Logger TD.    185.7m     :TOTAL DEPTH LOGGER
Elevation.    55.2m      :ELEVATION          
Casing size.  4"         :CASING SIZE
Casing Weight. STEEL     :CASING TYPE
Casing From.  G.L.       :CASING FROM
Casing To.    30m        :CASING TO
Bit size.     HQ(96mm)   :BIT SIZE
#------------------------------------------------------------
~OTHER
#------------------------------------------------------------
~A   DEPT[M]        RPOR        GRDE        MC4F        MC2F        CADE        DECR        CODE
# ...
     116.200     72.9200     99.7500     476.130     450.790     102.180  -0.0100000     1.51000
     116.300     60.8300     77.8000     469.240     456.700     102.260    0.000000     1.62000
     116.400     48.5800     100.550     470.230     459.650     102.260    0.000000     1.77000
     116.500     58.7700     98.6400     471.700     458.670     102.330  -0.0300000     1.74000
     116.600     63.4800     75.4100     464.320     460.630     102.350  -0.0100000     1.81000
     116.700     61.5300     59.3400     455.950     454.730     102.390   0.0100000     1.73000
     116.800     64.0700     73.8200     449.070     439.960     102.360   0.0300000     1.83000
     116.900     55.3700     104.360     447.590     436.030     102.420   0.0100000     2.03000
     117.000     44.1500     118.520     442.670     449.810     102.520  -0.0200000     2.08000
     117.100     44.1800     77.0000     440.700     444.890     102.560   0.0100000     2.02000
     117.200     56.6000     42.3200     440.210     430.120     102.590   0.0200000     1.75000
     117.300     63.2300     23.5500     438.240     428.150     102.680   0.0100000     1.49000
     117.400     55.4500     45.3400     435.290     444.890     102.920   0.0200000     1.58000
     117.500     48.8400     61.2500     430.360     438.000     103.050   0.0200000     1.80000
     117.600     42.0400     100.230     411.170     425.200     103.130  -0.0100000     2.04000
     117.700     40.2100     103.090     383.610     392.720     103.420  -0.0100000     2.28000
     117.800     36.7100     106.910     366.390     351.380     103.460   0.0100000     2.43000
     117.900     32.9100     105.950     348.180     338.590     103.480   0.0100000     2.46000
     118.000     29.8700     117.730     345.720     350.400     103.490   0.0300000     2.51000
     118.100     32.2100     119.000     350.150     352.370     103.480   0.0200000     2.50000
     118.200     32.9800     117.570     350.150     351.380     103.470   0.0300000     2.54000
     118.300     32.6800     95.7700     349.160     347.440     103.430   0.0300000     2.53000
     118.400     33.6300     119.160     345.720     348.430     103.500   0.0100000     2.48000
     118.500     30.8300     109.450     347.190     348.430     103.460  -0.0100000     2.43000
     118.600     28.3400     110.410     347.190     348.530     103.480   0.0200000     2.50000
     118.700     29.0800     108.820     345.230     352.370     103.470    0.000000     2.46000
     118.800     31.4900     92.2700     341.290     343.510     103.470   0.0100000     2.49000
     118.900     32.9500     108.340     336.470     335.630     103.510    0.000000     2.46000
     119.000     33.4400     108.500     334.400     332.680     103.490   0.0100000     2.48000
     119.100     33.5100     116.450     338.340     334.650     103.470   0.0200000     2.50000
     119.200     31.2600     85.5900     331.450     341.540     103.530    0.000000     2.47000
     119.300     31.1200     84.0000     327.510     323.820     103.530  -0.0100000     2.44000
     119.400     30.1300     89.5700     328.990     308.070     103.900   0.0100000     2.50000
     119.500     31.1700     106.910     325.050     329.730     103.890   0.0200000     2.50000
     119.600     28.4300     89.2500     331.450     346.460     103.840   0.0200000     2.49000
     119.700     26.5900     99.4300     331.450     333.660     103.880   0.0300000     2.53000
     119.800     30.6200     80.1800     318.160     325.790     103.840   0.0200000     2.53000
     119.900     29.2500     59.8200     300.930     308.070     103.900   0.0100000     2.53000
     120.000     25.4600     58.7000     300.930     282.480     103.960  -0.0100000     2.51000
     120.100     23.2100     55.6800     297.490     292.330     103.920    0.000000     2.50000
     120.200     23.3800     85.7500     302.900     315.950     103.990    0.000000     2.49000
     120.300     25.0900     78.2700     304.380     316.930     104.000   0.0100000     2.54000
     120.400     24.2000     72.2300     293.060     293.310     103.990   0.0200000     2.59000
     120.500     25.4500     91.6400     289.620     274.610     104.090   0.0200000     2.61000
     120.600     26.9500     72.7000     286.660     287.400     104.100   0.0100000     2.55000
     120.700     24.2300     57.4300     298.470     306.200     104.110   0.0200000     2.54000
     120.800     24.4200     68.2500     304.870     314.960     104.090   0.0200000     2.51000
     120.900     25.6500     94.1800     307.330     313.000     104.120   0.0100000     2.49000
     121.000     27.0300     70.8000     308.370     304.140     104.060   0.0200000     2.51000
     121.100     28.5600     66.5000     303.890     307.090     104.080   0.0100000     2.48000
     121.200     26.8800     74.6100     302.410     302.170     104.100   0.0100000     2.48000
     121.300     26.8700     92.4300     304.870     301.180     104.130   0.0100000     2.51000
     121.400     27.0500     75.5700     301.430     305.120     104.160    0.000000     2.51000
     121.500     24.9900     81.9300     302.410     301.180     104.170   0.0200000     2.55000
     121.600     25.6000     88.6100     305.360     300.200     104.230    0.000000     2.51000
     121.700     25.6900     101.660     310.290     309.060     104.170   0.0100000     2.51000
     121.800     26.1400     81.9300     318.160     317.920     104.190   0.0200000     2.52000
     121.900     28.1700     97.0500     323.570     327.760     104.190   0.0200000     2.52000
     122.000     30.0000     94.0200     323.570     326.780     104.180   0.0200000     2.49000
     122.100     29.9500     105.950     327.510     322.840     104.190   0.0200000     2.50000
     122.200     29.6200     81.7700     327.020     331.700     104.160   0.0100000     2.51000
     122.300     27.0900     72.8600     330.950     336.620     104.210    0.000000     2.50000
     122.400     28.5800     115.500     342.770     330.710     104.270    0.000000     2.50000
     122.500     29.3100     107.550     344.730     349.410     104.210   0.0100000     2.52000
     122.600     31.9000     116.140     342.770     360.240     104.280   0.0200000     2.57000
     122.700     35.6600     113.590     329.480     339.570     104.290   0.0100000     2.60000
     122.800     34.3300     101.820     325.540     304.140     104.290    0.000000     2.60000
     122.900     33.8300     99.4300     323.080     313.980     104.290    0.000000     2.59000
     123.000     30.8200     108.020     327.510     341.540     104.310    0.000000     2.51000
     123.100     31.0800     109.140     343.750     341.540     104.340   0.0100000     2.52000
     123.200     31.1800     107.860     345.720     344.590     104.300   0.0100000     2.52000
     123.300     31.2600     116.450     343.260     344.490     104.350   0.0200000     2.53000
     123.400     31.0400     112.800     340.300     338.590     104.130   0.0100000     2.51000
     123.500     32.7400     120.910     335.970     335.630     104.140  -0.0100000     2.47000
     123.600     33.7500     121.230     328.490     334.650     104.120    0.000000     2.52000
     123.700     31.7000     99.5900     322.100     320.870     104.150    0.000000     2.54000
     123.800     30.0600     121.230     321.600     310.040     104.160    0.000000     2.53000
     123.900     30.3400     96.4100     323.570     321.850     104.130   0.0100000     2.55000
     124.000     30.6700     89.8900     328.490     337.600     104.120   0.0100000     2.51000
     124.100     30.5100     102.930     338.830     339.570     104.120    0.000000     2.49000
     124.200     28.2800     119.480     339.810     344.490     104.110   0.0100000     2.50000
     124.300     27.5500     117.090     341.290     344.490     104.160   0.0100000     2.51000
     124.400     30.9500     100.070     324.560     341.540     104.120    0.000000     2.53000
