#------------------------------------------------------------
~VERSION INFORMATION
VERS.               2.0  :CWLS LOG ASCII STANDARD - VERSION 2.0
WRAP.                NO  :ONE LINE PER DEPTH STEP
#------------------------------------------------------------
~WELL INFORMATION
STRT.M         0.000000  :FIRST INDEX VALUE
STOP.M          186.000  :LAST INDEX VALUE
STEP.M         0.100000  :STEP
NULL.           -999.25  :NULL VALUE
COMP.  FANTASY COAL LTD  :Company
WELL.            ALT118  :Well
FLD.        Cassa North  :Field
LOC.               T123  :LOC
SRVC.     First Logging  :SRVC
CTRY.        Mozambique  :Country
PROV.              Tete  :Province
STAT.                    :State
CNTY.                    :County
DATE.       29-OCT-2012  :Date
UWI.          123456789  :UWI
#------------------------------------------------------------
~CURVE INFORMATION
DEPT.M                   :DEPTH
RPOR.PERC                :SANDST NEUTRON POROSITY
GRDE.GAPI                :GAMMA FROM DENSITY TOOL
MC4F.US/M                :40 CM TRANSIT TIME R2R4
MC2F.US/M                :20 CM TRANSIT TIME R1R2
CADE.MM                  :CALIPER FROM DENSITY TOOL
DECR.G/C3                :DENSITY CORRECTION
CODE.G/C3                :COMPENSATED DENSITY
#------------------------------------------------------------
~PARAMETER INFORMATION
Water Level.  36m        :WATER LEVEL  
DrillerTD.    185.58m    :TOTAL DEPTH DRILLER
Logger TD.    185.7m     :TOTAL DEPTH LOGGER
Elevation.    55.2m      :ELEVATION          
Casing size.  4"         :CASING SIZE
Casing Weight. STEEL     :CASING TYPE
Casing From.  G.L.       :CASING FROM
Casing To.    30m        :CASING TO
Bit size.     HQ(96mm)   :BIT SIZE
#------------------------------------------------------------
~OTHER
#------------------------------------------------------------
~A   DEPT[M]        RPOR        GRDE        MC4F        MC2F        CADE        DECR        CODE
# ...
     149.400     30.0700     66.1800     291.580     291.340     103.720    0.000000     2.50000
     149.500     28.5700     57.1100     286.660     293.310     103.730   0.0200000     2.58000
     149.600     28.5200     40.7300     288.630     287.410     103.730   0.0100000     2.57000
     149.700     30.4100     58.0700     289.620     287.410     103.540  -0.0100000     2.51000
     149.800     30.8600     50.1100     288.140     291.340     103.660   0.0100000     2.54000
     149.900     29.9900     43.7500     288.630     290.360     103.600   0.0200000     2.54000
     150.000     26.4300     63.9500     288.140     289.370     103.600   0.0100000     2.52000
     150.100     27.4100     44.2300     285.190     287.410     103.650   0.0100000     2.52000
     150.200     28.0500     51.8600     285.190     285.440     103.660   0.0100000     2.56000
     150.300     26.2600     54.0900     287.160     285.540     103.590   0.0200000     2.57000
     150.400     27.1500     56.3200     288.140     290.360     103.650   0.0200000     2.57000
     150.500     28.1900     51.0700     291.090     291.340     103.650  -0.0100000     2.47000
     150.600     28.6200     65.5500     296.060     294.300     103.680   0.0100000     2.51000
     150.700     27.4300     59.8200     294.040     300.200     103.640    0.000000     2.47000
     150.800     28.5100     46.9300     296.510     298.230     103.660   0.0100000     2.49000
     150.900     30.3400     56.9500     297.000     292.330     103.690    0.000000     2.49000
     151.000     29.1900     62.6800     296.510     295.280     103.670   0.0100000     2.51000
     151.100     29.2100     59.8200     297.000     300.200     103.670   0.0100000     2.50000
     151.200     29.3000     52.6600     295.520     299.220     103.660   0.0100000     2.50000
     151.300     28.9000     66.8200     292.080     290.360     103.690    0.000000     2.50000
     151.400     25.9700     52.8200     286.660     284.450     103.990    0.000000     2.51000
     151.500     26.1600     45.9800     286.660     285.440     104.070  -0.0100000     2.48000
     151.600     26.8000     60.3000     291.090     290.360     103.690   0.0100000     2.53000
     151.700     25.8700     51.3900     291.580     290.360     104.330   0.0100000     2.54000
     151.800     27.2900     44.8600     292.570     290.460     103.810   0.0100000     2.52000
     151.900     30.2200     71.4300     293.060     293.310     103.910   0.0100000     2.51000
     152.000     28.8800     28.6400     291.580     291.340     103.690   0.0100000     2.53000
     152.100     31.1200     27.0500     292.620     295.280     103.650   0.0300000     2.58000
     152.200     31.1700     56.6400     294.040     294.300     103.780   0.0200000     2.58000
     152.300     28.8500     67.3000     293.550     290.360     103.820   0.0200000     2.57000
     152.400     27.2700     51.0700     289.620     292.330     103.670  -0.0100000     2.46000
     152.500     27.4500     66.8200     289.620     286.420     103.670    0.000000     2.50000
     152.600     28.2700     60.4500     289.120     288.390     103.780    0.000000     2.51000
     152.700     28.1100     66.0200     294.540     296.360     103.820  -0.0100000     2.47000
     152.800     27.0300     45.3400     296.510     295.280     103.670   0.0100000     2.52000
     152.900     28.3600     57.9100     296.510     295.280     103.830   0.0100000     2.52000
     153.000     29.8600     42.9500     295.080     295.280     103.660   0.0100000     2.49000
     153.100     29.4800     56.8000     298.970     300.200     103.680   0.0100000     2.49000
     153.200     30.7800     69.2000     298.970     301.180     103.680   0.0100000     2.49000
     153.300     29.6500     76.0500     298.470     302.170     103.690   0.0200000     2.55000
     153.400     28.0000     53.1400     296.510     300.300     103.680   0.0100000     2.53000
     153.500     29.9200     42.8000     292.570     294.300     103.690   0.0100000     2.53000
     153.600     27.4500     72.2300     289.120     293.310     103.740    0.000000     2.51000
     153.700     27.0300     71.7500     289.220     290.360     103.750   0.0300000     2.59000
     153.800     27.3700     51.0700     286.660     288.390     104.290   0.0200000     2.56000
     153.900     27.4700     55.0500     287.650     286.420     104.420    0.000000     2.51000
     154.000     29.4200     45.6600     284.200     283.570     103.690    0.000000     2.54000
     154.100     28.8900     63.1600     280.270     280.520     103.510    0.000000     2.55000
     154.200     24.9300     53.6100     281.250     277.560     103.470    0.000000     2.53000
     154.300     25.6000     62.5200     278.840     285.440     103.510   0.0100000     2.54000
     154.400     26.6900     55.3600     275.340     281.500     103.510    0.000000     2.49000
     154.500     23.9500     70.4800     274.360     267.720     103.460   0.0400000     2.61000
     154.600     22.1100     82.7300     274.360     271.660     103.650   0.0300000     2.59000
     154.700     23.1500     63.4800     278.300     277.560     103.640   0.0100000     2.54000
     154.800     23.8300     53.7700     285.680     286.420     103.810   0.0100000     2.52000
     154.900     24.9700     56.9500     291.580     295.280     103.800   0.0100000     2.53000
     155.000     25.5800     48.3600     294.040     298.230     103.720    0.000000     2.48000
     155.100     24.6900     58.8600     291.580     295.280     103.800   0.0100000     2.50000
     155.200     25.8800     58.2300     291.090     288.390     103.780   0.0100000     2.51000
     155.300     27.2400     59.3400     286.660     288.390     103.820   0.0200000     2.54000
     155.400     28.4800     47.0900     288.140     289.370     103.800   0.0100000     2.52000
     155.500     31.4100     64.1100     288.630     293.310     103.840   0.0100000     2.52000
     155.600     31.5500     49.3200     291.580     292.330     103.870    0.000000     2.51000
     155.700     28.6800     45.3400     293.550     296.260     103.870   0.0100000     2.53000
     155.800     27.3600     53.6100     290.110     299.220     103.900   0.0100000     2.53000
     155.900     28.0200     70.8000     290.600     293.310     103.930   0.0100000     2.53000
     156.000     29.5600     48.2000     291.090     291.340     104.010   0.0100000     2.53000
     156.100     28.2600     51.5500     285.680     289.370     103.990   0.0100000     2.53000
     156.200     28.3300     45.6600     285.680     291.440     103.950   0.0100000     2.52000
     156.300     29.5300     51.3900     288.140     289.370     104.040  -0.0100000     2.45000
     156.400     31.1000     55.5200     291.090     290.360     104.130    0.000000     2.49000
     156.500     30.0700     73.8200     294.590     295.280     104.130    0.000000     2.48000
     156.600     28.9500     53.4500     295.520     298.230     104.090   0.0200000     2.51000
     156.700     26.4800     61.7300     296.510     298.230     103.990   0.0100000     2.51000
     156.800     26.0600     60.7700     291.580     299.220     104.140   0.0100000     2.51000
     156.900     27.5300     50.2700     291.580     286.420     104.140    0.000000     2.48000
     157.000     26.7900     60.7700     294.040     288.390     104.070   0.0100000     2.51000
     157.100     27.0900     70.6400     293.550     295.280     104.150    0.000000     2.47000
     157.200     28.4600     56.0000     294.540     301.180     104.120    0.000000     2.47000
     157.300     29.3700     58.3900     292.570     296.260     104.130   0.0200000     2.54000
     157.400     28.2900     43.1100     296.510     295.280     104.090   0.0100000     2.52000
     157.500     27.1200     57.7500     295.030     295.280     104.110   0.0100000     2.52000
     157.600     29.1700     67.7700     296.510     296.260     104.150   0.0100000     2.49000
