#------------------------------------------------------------
~VERSION INFORMATION
VERS.               2.0  :CWLS LOG ASCII STANDARD - VERSION 2.0
WRAP.                NO  :ONE LINE PER DEPTH STEP
#------------------------------------------------------------
~WELL INFORMATION
STRT.M         0.000000  :FIRST INDEX VALUE
STOP.M          186.000  :LAST INDEX VALUE
STEP.M         0.100000  :STEP
NULL.           -999.25  :NULL VALUE
COMP.  FANTASY COAL LTD  :Company
WELL.            ALT118  :Well
FLD.        Cassa North  :Field
LOC.               T123  :LOC
SRVC.     First Logging  :SRVC
CTRY.        Mozambique  :Country
PROV.              Tete  :Province
STAT.                    :State
CNTY.                    :County
DATE.       29-OCT-2012  :Date
UWI.          123456789  :UWI
#------------------------------------------------------------
~CURVE INFORMATION
DEPT.M                   :DEPTH
RPOR.PERC                :SANDST NEUTRON POROSITY
GRDE.GAPI                :GAMMA FROM DENSITY TOOL
MC4F.US/M                :40 CM TRANSIT TIME R2R4
MC2F.US/M                :20 CM TRANSIT TIME R1R2
CADE.MM                  :CALIPER FROM DENSITY TOOL
DECR.G/C3                :DENSITY CORRECTION
CODE.G/C3                :COMPENSATED DENSITY
#------------------------------------------------------------
~PARAMETER INFORMATION
Water Level.  36m        :WATER LEVEL  
DrillerTD.    185.58m    :TOTAL DEPTH DRILLER
Logger TD.    185.7m     :TOTAL DEPTH LOGGER
Elevation.    55.2m      :ELEVATION          
Casing size.  4"         :CASING SIZE
Casing Weight. STEEL     :CASING TYPE
Casing From.  G.L.       :CASING FROM
Casing To.    30m        :CASING TO
Bit size.     HQ(96mm)   :BIT SIZE
#------------------------------------------------------------
~OTHER
#------------------------------------------------------------
~A   DEPT[M]        RPOR        GRDE        MC4F        MC2F        CADE        DECR        CODE
# ...
     166.000     26.9700     57.2700     303.400     305.120     98.6200   0.0200000     2.50000
     166.100     25.6400     49.9500     304.870     305.120     98.5500    0.000000     2.45000
     166.200     26.8800     50.1100     304.870     305.220     98.6100   0.0100000     2.49000
     166.300     28.8000     49.1600     304.380     305.120     98.5400   0.0200000     2.51000
     166.400     28.7600     56.9500     303.400     305.120     98.6000   0.0100000     2.49000
     166.500     26.0900     60.3000     300.000     305.120     98.5900   0.0200000     2.52000
     166.600     27.0400     53.9300     296.510     300.200     98.5500   0.0100000     2.51000
     166.700     29.4300     60.3000     296.510     290.360     98.5900    0.000000     2.49000
     166.800     30.6800     59.5000     294.050     296.260     98.5600  -0.0200000     2.47000
     166.900     28.1600     50.4300     291.580     301.180     98.5800  -0.0100000     2.49000
     167.000     25.8900     51.5500     297.490     290.360     98.5400   0.0100000     2.55000
     167.100     25.5800     59.1800     300.440     297.250     98.5300   0.0100000     2.52000
     167.200     25.5400     51.2300     298.970     310.040     98.5400   0.0300000     2.56000
     167.300     26.8100     52.9800     297.980     307.090     98.5800   0.0200000     2.52000
     167.400     26.8400     64.7500     289.120     289.370     98.5500   0.0100000     2.51000
     167.500     24.8100     62.0500     286.660     275.590     98.5800    0.000000     2.51000
     167.600     24.6800     60.1400     287.650     287.410     98.5600   0.0100000     2.53000
     167.700     27.0900     51.2300     288.140     302.170     98.5700   0.0100000     2.52000
     167.800     25.9500     73.5000     287.650     289.370     98.5700   0.0100000     2.55000
     167.900     23.0400     61.0900     271.900     277.560     98.5600   0.0100000     2.56000
     168.000     22.7500     63.0000     258.120     260.930     98.5800   0.0100000     2.60000
     168.100     24.6900     44.3900     244.830     243.110     98.5200   0.0100000     2.63000
     168.200     23.5800     51.0700     239.420     233.270     98.5600   0.0100000     2.60000
     168.300     23.0800     41.8400     250.300     239.280     98.6000    0.000000     2.55000
     168.400     24.9500     53.7700     260.090     272.640     98.5700   0.0200000     2.55000
     168.500     25.8100     45.3400     279.770     290.360     98.5600   0.0100000     2.51000
     168.600     25.4600     51.5500     292.620     295.280     98.5300   0.0100000     2.50000
     168.700     26.3200     67.4500     291.090     296.260     98.5100   0.0100000     2.52000
     168.800     27.7700     71.4300     289.120     296.260     98.5600   0.0100000     2.52000
     168.900     29.4800     68.4100     284.200     289.470     98.5900    0.000000     2.51000
     169.000     27.5600     64.5900     285.190     278.550     98.5600   0.0100000     2.55000
     169.100     25.5400     59.3400     284.700     289.370     98.5400   0.0200000     2.57000
     169.200     25.5300     54.4100     286.710     299.220     98.5800   0.0200000     2.59000
     169.300     28.1500     61.7300     291.580     292.330     98.5700    0.000000     2.54000
     169.400     29.8300     62.6800     287.650     290.360     98.5700   0.0100000     2.57000
     169.500     28.6300     57.9100     289.620     291.440     98.5800   0.0200000     2.61000
     169.600     26.7700     73.0200     293.060     298.230     98.5400    0.000000     2.56000
     169.700     25.6300     68.5700     296.510     296.260     98.5600    0.000000     2.55000
     169.800     24.8700     63.3200     293.600     293.310     98.5800   0.0100000     2.57000
     169.900     25.3500     65.8600     288.630     294.300     98.5600   0.0100000     2.54000
     170.000     27.0700     61.4100     285.680     286.420     98.5300   0.0100000     2.54000
     170.100     25.1900     68.4100     284.200     285.440     98.5800    0.000000     2.54000
     170.200     24.5300     60.1400     286.170     285.540     98.5800    0.000000     2.53000
     170.300     25.3700     61.5700     287.650     288.390     98.5800   0.0100000     2.53000
     170.400     25.8300     54.7300     290.600     294.290     98.5700   0.0100000     2.54000
     170.500     25.8800     86.5500     291.680     301.180     98.6000   0.0200000     2.59000
     170.600     26.3800     77.4800     282.730     297.250     98.5700    0.000000     2.58000
     170.700     26.4200     73.6600     279.770     268.700     98.6100  -0.0100000     2.55000
     170.800     25.5400     73.1800     283.220     263.780     98.5600    0.000000     2.57000
     170.900     25.7200     107.550     294.050     301.180     98.5700    0.000000     2.50000
     171.000     27.4100     116.140     321.110     317.920     98.5500   0.0100000     2.50000
     171.100     28.7400     96.4100     333.420     331.700     98.5800   0.0200000     2.52000
     171.200     30.0600     99.7500     331.940     337.600     98.5200   0.0200000     2.51000
     171.300     32.3000     91.3200     329.970     329.730     98.5600   0.0100000     2.52000
     171.400     32.5000     106.270     315.210     326.780     98.5700   0.0100000     2.56000
     171.500     31.0700     110.250     315.700     305.120     98.5900    0.000000     2.54000
     171.600     30.0600     105.640     321.600     307.090     98.5800    0.000000     2.53000
     171.700     33.4700     105.480     319.140     324.810     98.5700   0.0100000     2.55000
     171.800     37.1300     113.910     331.450     328.740     98.5600   0.0200000     2.55000
     171.900     37.1600     113.590     330.950     334.650     98.6200   0.0200000     2.55000
     172.000     35.2200     117.890     335.380     334.650     98.5600   0.0100000     2.52000
     172.100     33.3700     115.660     332.920     329.730     98.6200   0.0200000     2.56000
     172.200     33.6100     127.910     330.950     329.730     98.6000   0.0100000     2.54000
     172.300     32.2400     124.090     327.020     326.780     98.5900   0.0100000     2.54000
     172.400     32.2500     108.020     324.070     324.810     98.5900   0.0100000     2.53000
     172.500     33.6600     101.500     324.070     330.710     98.5400   0.0100000     2.54000
     172.600     32.8300     104.200     327.510     329.730     98.5200   0.0100000     2.54000
     172.700     31.6000     99.7500     324.070     324.810     98.5900   0.0200000     2.56000
     172.800     33.6800     109.930     324.560     329.730     98.5600   0.0200000     2.59000
     172.900     35.2200     120.590     329.480     329.730     98.5900   0.0200000     2.57000
     173.000     32.3400     119.320     327.020     329.730     98.5900   0.0100000     2.56000
     173.100     31.4300     109.140     326.030     331.700     98.5700   0.0100000     2.58000
     173.200     31.4200     86.3900     322.100     320.870     98.5500   0.0100000     2.58000
     173.300     33.1600     97.2000     320.130     313.980     98.5700    0.000000     2.56000
     173.400     35.4200     84.3200     326.030     316.930     98.6100    0.000000     2.54000
     173.500     33.6300     129.820     335.430     334.650     98.5700   0.0300000     2.57000
     173.600     33.1900     105.950     342.770     353.350     98.5800   0.0300000     2.55000
     173.700     34.5700     105.320     351.620     349.410     98.5200   0.0200000     2.52000
     173.800     35.0600     127.750     348.670     350.500     98.4900   0.0200000     2.51000
     173.900     35.4100     101.980     350.150     352.370     98.5100   0.0100000     2.51000
     174.000     36.9200     108.340     351.620     352.370     98.5100   0.0200000     2.50000
     174.100     37.6800     104.050     356.150     352.370     98.4600  -0.0200000     2.32000
     174.200     38.1900     77.1600     363.930     361.220     98.4900   0.0100000     2.14000
