#------------------------------------------------------------
~VERSION INFORMATION
VERS.               2.0  :CWLS LOG ASCII STANDARD - VERSION 2.0
WRAP.                NO  :ONE LINE PER DEPTH STEP
#------------------------------------------------------------
~WELL INFORMATION
STRT.M         0.000000  :FIRST INDEX VALUE
STOP.M          186.000  :LAST INDEX VALUE
STEP.M         0.100000  :STEP
NULL.           -999.25  :NULL VALUE
COMP.  FANTASY COAL LTD  :Company
WELL.            ALT118  :Well
FLD.        Cassa North  :Field
LOC.               T123  :LOC
SRVC.     First Logging  :SRVC
CTRY.        Mozambique  :Country
PROV.              Tete  :Province
STAT.                    :State
CNTY.                    :County
DATE.       29-OCT-2012  :Date
UWI.          123456789  :UWI
#------------------------------------------------------------
~CURVE INFORMATION
DEPT.M                   :DEPTH
RPOR.PERC                :SANDST NEUTRON POROSITY
GRDE.GAPI                :GAMMA FROM DENSITY TOOL
MC4F.US/M                :40 CM TRANSIT TIME R2R4
MC2F.US/M                :20 CM TRANSIT TIME R1R2
CADE.MM                  :CALIPER FROM DENSITY TOOL
DECR.G/C3                :DENSITY CORRECTION
CODE.G/C3                :COMPENSATED DENSITY
#------------------------------------------------------------
~PARAMETER INFORMATION
Water Level.  36m        :WATER LEVEL  
DrillerTD.    185.58m    :TOTAL DEPTH DRILLER
Logger TD.    185.7m     :TOTAL DEPTH LOGGER
Elevation.    55.2m      :ELEVATION          
Casing size.  4"         :CASING SIZE
Casing Weight. STEEL     :CASING TYPE
Casing From.  G.L.       :CASING FROM
Casing To.    30m        :CASING TO
Bit size.     HQ(96mm)   :BIT SIZE
#------------------------------------------------------------
~OTHER
#------------------------------------------------------------
~A   DEPT[M]        RPOR        GRDE        MC4F        MC2F        CADE        DECR        CODE
# ...
     83.0000     40.3300     99.2700     429.870     416.350     101.300  -0.0100000     2.24000
     83.1000     44.0400     102.140     447.590     466.540     101.040   0.0400000     2.20000
     83.2000     46.0300     97.6800     452.510     476.390     101.020   0.0200000     2.13000
     83.3000     49.5200     104.050     446.600     444.890     100.970    0.000000     2.07000
     83.4000     48.9300     108.340     429.870     417.330     100.960    0.000000     2.14000
     83.5000     45.5200     67.4500     415.110     422.250     100.980  -0.0100000     2.13000
     83.6000     44.7700     75.5700     414.620     415.360     101.160  -0.0100000     2.14000
     83.7000     49.1500     63.4800     420.520     415.360     101.190  -0.0100000     2.09000
     83.8000     52.1300     66.1800     425.440     425.200     103.810  -0.0100000     2.03000
     83.9000     47.2400     73.5000     434.790     437.020     103.900  -0.0200000     1.98000
     84.0000     50.5700     107.070     470.720     452.760     102.160    0.000000     2.04000
     84.1000     48.2600     108.180     455.460     499.020     120.780  -0.0100000     2.12000
     84.2000     49.9300     85.7500     455.950     471.460     102.510  -0.0200000     2.11000
     84.3000     51.6800     115.660     452.020     435.050     102.610    0.000000     2.26000
     84.4000     48.1700     104.680     412.150     454.730     103.130    0.000000     2.24000
     84.5000     51.5500     97.0500     420.520     409.460     103.550  -0.0100000     2.21000
     84.6000     47.2100     113.270     418.550     401.580     102.900   0.0100000     2.23000
     84.7000     47.2600     105.800     419.040     441.940     103.010   0.0100000     2.19000
     84.8000     49.8100     113.590     437.250     458.670     103.050  -0.0100000     2.14000
     84.9000     49.9800     100.550     432.820     438.980     102.730   0.0100000     2.24000
     85.0000     49.4900     79.3900     407.230     429.240     102.190  -0.0100000     2.27000
     85.1000     45.5900     73.6600     417.570     375.990     102.140  -0.0400000     2.19000
     85.2000     40.1300     60.6100     408.710     375.010     102.130  -0.0200000     2.29000
     85.3000     42.2000     72.7000     406.300     442.920     102.080  -0.0300000     2.28000
     85.4000     52.6300     56.3200     424.950     435.050     102.120  -0.0200000     2.37000
     85.5000     51.4700     45.3400     401.330     409.460     102.130  -0.0100000     2.58000
     85.6000     49.9700     29.1100     359.500     372.050     104.500  -0.0400000     2.63000
     85.7000     46.6100     34.5200     342.760     305.130     102.380  -0.0500000     2.62000
     85.8000     41.4700     54.2500     324.060     306.210     102.360  -0.0500000     2.58000
     85.9000     42.6400     62.0500     351.130     347.450     102.460  -0.0400000     2.44000
     86.0000     44.6100     76.5200     395.420     388.790     102.800  -0.0200000     2.39000
     86.1000     45.7100     74.9300     415.700     432.090     103.080  -0.0200000     2.30000
     86.2000     46.4100     85.1100     432.820     441.940     102.860  -0.0100000     2.27000
     86.3000     49.2500     62.3600     433.320     431.110     102.650  -0.0200000     2.23000
     86.4000     48.8300     73.8200     424.460     420.280     103.640  -0.0100000     2.28000
     86.5000     51.2300     85.5900     422.490     418.310     102.120  -0.0300000     2.22000
     86.6000     52.4800     80.3400     425.440     418.310     102.150  -0.0300000     2.15000
     86.7000     51.0100     70.0000     433.810     418.310     102.050  -0.0200000     2.13000
     86.8000     49.8500     55.2000     435.280     438.000     102.030  -0.0100000     2.12000
     86.9000     52.3700     49.4800     414.620     441.940     102.010  -0.0100000     2.33000
     87.0000     56.1400     41.8400     384.100     393.710     101.960  -0.0600000     2.36000
     87.1000     51.7400     37.8600     380.170     311.030     103.150  -0.0500000     2.31000
     87.2000     48.4800     53.9300     381.150     379.930     103.640  -0.0200000     2.19000
     87.3000     53.1100     48.8400     404.770     443.900     105.870  -0.0200000     1.93000
     87.4000     51.5500     47.4100     445.620     438.000     103.590  -0.0100000     1.89000
     87.5000     47.4300     58.8600     451.030     441.940     103.390  -0.0100000     1.93000
     87.6000     53.2100     78.9100     459.890     457.680     103.850  -0.0200000     1.97000
     87.7000     50.2300     87.9800     464.320     470.480     103.570  -0.0100000     2.07000
     87.8000     42.5000     97.6800     447.100     468.510     102.610  -0.0100000     2.24000
     87.9000     42.8500     73.3400     409.690     429.140     102.570  -0.0100000     2.45000
     88.0000     40.2800     68.2500     388.040     349.420     102.790  -0.0100000     2.58000
     88.1000     34.9400     84.9500     365.900     351.380     102.760  -0.0100000     2.66000
     88.2000     34.8400     114.390     356.540     379.930     102.740  -0.0100000     2.58000
     88.3000     39.1200     109.770     376.720     363.200     102.750  -0.0100000     2.51000
     88.4000     38.2500     129.980     371.800     372.050     102.790    0.000000     2.54000
     88.5000     36.8800     104.050     377.210     380.910     102.760    0.000000     2.49000
     88.6000     36.7500     105.800     383.120     381.900     102.790    0.000000     2.48000
     88.7000     37.6600     109.300     381.640     377.960     102.770    0.000000     2.47000
     88.8000     39.6300     111.520     372.290     377.960     102.720    0.000000     2.45000
     88.9000     40.0200     106.110     362.450     365.160     102.780    0.000000     2.49000
     89.0000     37.2200     104.840     351.620     347.450     102.780    0.000000     2.52000
     89.1000     34.9100     129.020     338.340     339.570     102.770    0.000000     2.52000
     89.2000     35.4900     93.2300     333.410     330.720     102.760    0.000000     2.53000
     89.3000     33.3900     106.110     331.940     331.800     102.780   0.0100000     2.55000
     89.4000     31.6400     100.070     331.940     330.720     102.740    0.000000     2.53000
     89.5000     32.8800     95.9300     331.450     334.650     102.790   0.0100000     2.53000
     89.6000     31.5400     104.680     330.070     330.720     102.740    0.000000     2.50000
     89.7000     33.3000     87.8200     327.510     323.920     102.740   0.0100000     2.56000
     89.8000     33.8000     105.950     323.570     324.810     102.790   0.0200000     2.56000
     89.9000     32.3100     109.770     321.110     319.890     102.740   0.0100000     2.56000
     90.0000     33.1400     112.000     315.210     315.950     102.810   0.0100000     2.56000
     90.1000     32.2800     100.230     319.640     312.010     102.800    0.000000     2.54000
     90.2000     30.7700     101.020     328.490     323.830     102.790   0.0300000     2.59000
     90.3000     31.9800     105.320     334.890     348.430     102.820   0.0200000     2.52000
     90.4000     32.8800     108.180     353.590     346.460     102.830   0.0100000     2.50000
     90.5000     34.0200     115.820     343.750     361.330     102.830   0.0100000     2.53000
     90.6000     36.7700     98.9500     338.340     342.530     102.900  -0.0100000     2.49000
     90.7000     34.1000     76.0500     325.540     316.940     102.850   0.0100000     2.57000
     90.8000     33.1900     98.3200     308.320     312.010     102.820    0.000000     2.54000
     90.9000     30.4400     93.0700     312.750     304.140     102.790   0.0100000     2.53000
     91.0000     30.5800     90.8400     313.730     313.000     102.770   0.0200000     2.55000
     91.1000     30.2800     94.0200     317.170     319.890     102.810   0.0200000     2.54000
     91.2000     26.9600     97.0500     319.140     323.830     102.800   0.0200000     2.56000
