#------------------------------------------------------------
~VERSION INFORMATION
VERS.               2.0  :CWLS LOG ASCII STANDARD - VERSION 2.0
WRAP.                NO  :ONE LINE PER DEPTH STEP
#------------------------------------------------------------
~WELL INFORMATION
STRT.M         0.000000  :FIRST INDEX VALUE
STOP.M          186.000  :LAST INDEX VALUE
STEP.M         0.100000  :STEP
NULL.           -999.25  :NULL VALUE
COMP.  FANTASY COAL LTD  :Company
WELL.            ALT118  :Well
FLD.        Cassa North  :Field
LOC.               T123  :LOC
SRVC.     First Logging  :SRVC
CTRY.        Mozambique  :Country
PROV.              Tete  :Province
STAT.                    :State
CNTY.                    :County
DATE.       29-OCT-2012  :Date
UWI.          123456789  :UWI
#------------------------------------------------------------
~CURVE INFORMATION
DEPT.M                   :DEPTH
RPOR.PERC                :SANDST NEUTRON POROSITY
GRDE.GAPI                :GAMMA FROM DENSITY TOOL
MC4F.US/M                :40 CM TRANSIT TIME R2R4
MC2F.US/M                :20 CM TRANSIT TIME R1R2
CADE.MM                  :CALIPER FROM DENSITY TOOL
DECR.G/C3                :DENSITY CORRECTION
CODE.G/C3                :COMPENSATED DENSITY
#------------------------------------------------------------
~PARAMETER INFORMATION
Water Level.  36m        :WATER LEVEL  
DrillerTD.    185.58m    :TOTAL DEPTH DRILLER
Logger TD.    185.7m     :TOTAL DEPTH LOGGER
Elevation.    55.2m      :ELEVATION          
Casing size.  4"         :CASING SIZE
Casing Weight. STEEL     :CASING TYPE
Casing From.  G.L.       :CASING FROM
Casing To.    30m        :CASING TO
Bit size.     HQ(96mm)   :BIT SIZE
#------------------------------------------------------------
~OTHER
#------------------------------------------------------------
~A   DEPT[M]        RPOR        GRDE        MC4F        MC2F        CADE        DECR        CODE
# ...
     141.100     24.5000     59.5000     268.450     263.780     101.720   0.0100000     2.51000
     141.200     23.4300     55.5200     270.420     257.880     102.300   0.0100000     2.50000
     141.300     24.7000     59.9800     275.840     276.580     102.790   0.0100000     2.49000
     141.400     28.2400     62.3600     285.680     295.280     102.270   0.0100000     2.45000
     141.500     29.5700     61.0900     295.030     300.200     101.800   0.0200000     2.46000
     141.600     29.0000     58.0700     296.010     297.250     101.780   0.0200000     2.46000
     141.700     28.5100     53.3000     293.550     294.300     101.790   0.0300000     2.50000
     141.800     24.9500     63.1600     290.110     296.260     101.830   0.0200000     2.46000
     141.900     26.0800     70.3200     286.660     288.390     101.710   0.0100000     2.47000
     142.000     25.9800     80.6600     281.250     284.450     101.450   0.0200000     2.51000
     142.100     25.1300     67.4500     280.270     276.680     101.440   0.0200000     2.49000
     142.200     23.6600     70.9500     281.740     281.600     101.410   0.0200000     2.49000
     142.300     25.4200     69.2000     287.650     290.360     101.370   0.0200000     2.47000
     142.400     26.5800     65.2300     290.650     291.340     101.360    0.000000     2.43000
     142.500     28.0900     74.1400     283.760     289.370     101.360   0.0100000     2.47000
     142.600     28.3100     67.7700     277.800     276.580     101.320   0.0100000     2.48000
     142.700     24.7200     81.3000     277.310     268.700     102.660   0.0100000     2.48000
     142.800     23.5000     67.4500     271.410     273.630     102.120   0.0200000     2.51000
     142.900     25.4500     44.2300     266.980     272.640     102.120   0.0100000     2.46000
     143.000     24.8100     68.8900     272.390     270.670     103.040   0.0100000     2.47000
     143.100     23.1700     69.8400     272.880     269.690     102.960   0.0100000     2.48000
     143.200     23.2500     81.4500     269.440     271.660     101.660    0.000000     2.44000
     143.300     22.7400     78.7500     273.380     270.670     101.360   0.0100000     2.45000
     143.400     23.9700     55.6800     278.300     273.630     101.310   0.0200000     2.45000
     143.500     24.9200     68.0900     278.790     288.390     101.110   0.0100000     2.40000
     143.600     23.5700     65.3900     284.200     289.470     101.140   0.0200000     2.40000
     143.700     25.5000     59.5000     274.360     286.420     101.310   0.0300000     2.45000
     143.800     26.0400     70.8000     261.070     259.850     101.330   0.0100000     2.44000
     143.900     24.1200     53.6100     251.280     236.220     101.310   0.0100000     2.46000
     144.000     24.4500     45.8200     254.180     245.080     101.260    0.000000     2.42000
     144.100     26.4700     59.3400     276.820     275.590     101.570    0.000000     2.43000
     144.200     26.0600     59.6600     294.040     306.110     101.950    0.000000     2.42000
     144.300     23.4900     52.0200     307.820     315.950     102.280   0.0100000     2.44000
     144.400     24.3000     79.7000     309.790     315.950     102.240   0.0100000     2.44000
     144.500     29.5900     89.5700     306.350     309.060     102.300   0.0100000     2.47000
     144.600     28.3800     68.2500     303.400     305.120     102.430    0.000000     2.45000
     144.700     27.5800     55.6800     304.380     305.120     102.220   0.0300000     2.53000
     144.800     27.7900     56.3200     305.360     305.120     101.780   0.0200000     2.49000
     144.900     26.0700     48.5200     303.890     302.170     102.000   0.0100000     2.49000
     145.000     26.8100     52.6600     304.870     299.220     102.210   0.0200000     2.49000
     145.100     25.1500     76.2000     307.820     299.220     102.430   0.0100000     2.48000
     145.200     25.2500     62.6800     318.650     301.180     102.520    0.000000     2.46000
     145.300     28.6800     64.2700     315.210     306.110     102.250   0.0100000     2.47000
     145.400     28.8400     70.0000     314.710     304.140     101.940   0.0100000     2.46000
     145.500     29.7200     70.4800     318.650     308.070     102.080   0.0100000     2.44000
     145.600     28.6200     49.6400     313.730     325.790     102.010   0.0300000     2.48000
     145.700     26.5700     70.3200     311.760     321.850     102.030   0.0300000     2.46000
     145.800     27.7100     66.6600     309.300     295.280     102.070   0.0300000     2.47000
     145.900     26.9000     87.6600     300.930     296.260     102.040   0.0300000     2.50000
     146.000     27.9800     71.4300     298.470     300.200     102.280   0.0200000     2.48000
     146.100     27.0400     66.1800     302.410     300.200     103.010   0.0300000     2.53000
     146.200     25.0100     51.7000     301.920     301.180     103.040   0.0100000     2.47000
     146.300     23.2200     64.1100     297.000     304.140     102.750   0.0100000     2.48000
     146.400     24.5000     59.6600     294.040     297.250     102.770   0.0100000     2.47000
     146.500     28.3100     65.8600     294.540     289.370     102.630   0.0200000     2.48000
     146.600     27.0200     51.8600     291.580     297.250     102.300   0.0300000     2.48000
     146.700     25.0400     75.7300     295.030     298.230     102.270   0.0200000     2.45000
     146.800     24.3800     68.7300     298.970     293.310     102.260   0.0200000     2.47000
     146.900     24.7800     66.9800     299.020     300.200     102.250   0.0200000     2.48000
     147.000     25.9600     61.2500     302.410     309.060     102.320   0.0100000     2.44000
     147.100     26.2700     65.2300     307.330     312.010     102.940   0.0100000     2.46000
     147.200     26.6900     68.4100     303.890     307.090     104.570   0.0200000     2.49000
     147.300     28.2800     61.2500     298.970     299.220     102.980    0.000000     2.44000
     147.400     26.3400     63.0000     296.510     290.360     102.920    0.000000     2.44000
     147.500     25.9400     72.5500     297.000     295.280     102.840    0.000000     2.44000
     147.600     26.5300     66.3400     302.950     304.140     102.260   0.0100000     2.48000
     147.700     25.5100     62.8400     308.810     312.010     102.300    0.000000     2.41000
     147.800     25.8700     75.0900     308.810     313.980     102.280   0.0300000     2.47000
     147.900     25.1800     60.3000     304.380     313.980     102.340   0.0400000     2.49000
     148.000     26.0500     51.5500     300.440     300.200     102.410   0.0300000     2.48000
     148.100     26.3700     49.4800     291.090     293.310     103.210   0.0200000     2.47000
     148.200     25.5400     76.8400     278.790     282.480     103.340   0.0300000     2.52000
     148.300     26.0800     60.7700     275.340     273.630     103.230   0.0100000     2.50000
     148.400     28.8100     55.5200     277.310     266.740     103.220   0.0100000     2.51000
     148.500     30.8000     52.6600     288.140     282.480     103.400    0.000000     2.45000
     148.600     25.4600     58.3900     297.980     301.090     103.390   0.0200000     2.51000
     148.700     25.6100     65.0700     308.320     306.110     103.400   0.0200000     2.48000
     148.800     28.0600     78.5900     310.290     312.110     103.530   0.0400000     2.54000
     148.900     28.2500     54.4100     303.840     308.070     103.620   0.0400000     2.54000
     149.000     28.6400     54.7300     298.970     300.200     104.120   0.0400000     2.53000
     149.100     27.4300     56.4800     295.570     291.340     104.050   0.0300000     2.51000
     149.200     28.4100     54.2500     291.580     293.310     104.440   0.0100000     2.49000
     149.300     30.0700     56.3200     291.090     290.360     103.720  -0.0100000     2.46000
