#------------------------------------------------------------
~VERSION INFORMATION
VERS.               2.0  :CWLS LOG ASCII STANDARD - VERSION 2.0
WRAP.                NO  :ONE LINE PER DEPTH STEP
#------------------------------------------------------------
~WELL INFORMATION
STRT.M         0.000000  :FIRST INDEX VALUE
STOP.M          186.000  :LAST INDEX VALUE
STEP.M         0.100000  :STEP
NULL.           -999.25  :NULL VALUE
COMP.  FANTASY COAL LTD  :Company
WELL.            ALT118  :Well
FLD.        Cassa North  :Field
LOC.               T123  :LOC
SRVC.     First Logging  :SRVC
CTRY.        Mozambique  :Country
PROV.              Tete  :Province
STAT.                    :State
CNTY.                    :County
DATE.       29-OCT-2012  :Date
UWI.          123456789  :UWI
#------------------------------------------------------------
~CURVE INFORMATION
DEPT.M                   :DEPTH
RPOR.PERC                :SANDST NEUTRON POROSITY
GRDE.GAPI                :GAMMA FROM DENSITY TOOL
MC4F.US/M                :40 CM TRANSIT TIME R2R4
MC2F.US/M                :20 CM TRANSIT TIME R1R2
CADE.MM                  :CALIPER FROM DENSITY TOOL
DECR.G/C3                :DENSITY CORRECTION
CODE.G/C3                :COMPENSATED DENSITY
#------------------------------------------------------------
~PARAMETER INFORMATION
Water Level.  36m        :WATER LEVEL  
DrillerTD.    185.58m    :TOTAL DEPTH DRILLER
Logger TD.    185.7m     :TOTAL DEPTH LOGGER
Elevation.    55.2m      :ELEVATION          
Casing size.  4"         :CASING SIZE
Casing Weight. STEEL     :CASING TYPE
Casing From.  G.L.       :CASING FROM
Casing To.    30m        :CASING TO
Bit size.     HQ(96mm)   :BIT SIZE
#------------------------------------------------------------
~OTHER
#------------------------------------------------------------
~A   DEPT[M]        RPOR        GRDE        MC4F        MC2F        CADE        DECR        CODE
# ...
     107.900     32.7600     91.3200     329.480     344.490     103.270   0.0100000     2.49000
     108.000     31.5200     79.7000     338.340     327.760     103.260   0.0100000     2.50000
     108.100     30.0500     61.0900     336.370     323.830     103.620   0.0100000     2.50000
     108.200     31.8900     89.0900     335.880     338.590     103.770   0.0200000     2.51000
     108.300     32.5500     85.5900     341.780     344.490     103.000   0.0100000     2.49000
     108.400     29.3700     85.9100     342.770     341.540     102.980   0.0200000     2.53000
     108.500     29.7400     93.2300     340.800     339.570     102.890   0.0100000     2.50000
     108.600     29.1600     92.9100     339.810     337.600     102.900   0.0100000     2.52000
     108.700     30.9100     86.7000     328.490     341.540     102.950   0.0100000     2.55000
     108.800     31.3800     88.7700     331.940     320.870     103.010    0.000000     2.51000
     108.900     33.4700     121.860     341.780     323.830     103.140   0.0100000     2.52000
     109.000     32.1600     133.800     347.190     358.270     103.100   0.0100000     2.49000
     109.100     30.9900     103.890     347.690     370.090     103.100   0.0100000     2.50000
     109.200     32.7700     100.230     348.670     338.590     103.130   0.0100000     2.52000
     109.300     32.8300     89.7300     349.160     332.680     103.170   0.0200000     2.55000
     109.400     32.0300     100.230     338.340     356.310     103.200   0.0100000     2.53000
     109.500     29.3900     118.840     343.750     349.420     103.240  -0.0200000     2.46000
     109.600     29.1100     86.8600     339.810     329.730     103.370   0.0100000     2.55000
     109.700     28.9800     117.730     327.510     333.670     103.320   0.0300000     2.58000
     109.800     28.8100     89.0900     321.110     328.750     103.320   0.0100000     2.52000
     109.900     30.0600     80.1800     316.680     310.140     103.320   0.0100000     2.53000
     110.000     31.1400     85.5900     306.350     299.220     103.230   0.0300000     2.59000
     110.100     31.2200     83.6800     305.360     304.140     103.260   0.0200000     2.56000
     110.200     29.0400     107.390     314.370     306.110     103.280   0.0300000     2.57000
     110.300     28.3000     97.0500     325.540     324.810     103.250   0.0100000     2.50000
     110.400     30.8300     88.4500     335.430     337.600     103.270   0.0100000     2.48000
     110.500     32.5700     93.3900     346.700     351.380     103.320   0.0100000     2.47000
     110.600     38.5000     80.1800     344.240     358.270     103.340   0.0100000     2.47000
     110.700     35.5900     97.8400     341.780     346.460     103.200   0.0100000     2.49000
     110.800     31.7200     80.6600     328.490     334.750     103.240   0.0200000     2.57000
     110.900     31.1000     62.0500     307.820     319.890     103.210  -0.0100000     2.58000
     111.000     31.2100     75.5700     293.550     290.360     103.240  -0.0200000     2.61000
     111.100     29.3100     68.4100     289.120     272.640     103.410    0.000000     2.65000
     111.200     26.9600     81.7700     301.430     296.270     103.550    0.000000     2.57000
     111.300     29.5900     74.9300     318.650     340.560     103.150   0.0200000     2.54000
     111.400     31.0700     100.230     340.300     357.290     102.790   0.0200000     2.51000
     111.500     32.5600     90.0500     340.300     345.480     102.650    0.000000     2.47000
     111.600     27.3800     111.050     347.690     342.530     102.500   0.0100000     2.51000
     111.700     25.8700     107.230     346.700     346.460     102.470    0.000000     2.48000
     111.800     29.6000     100.230     343.750     355.320     102.780    0.000000     2.51000
     111.900     33.1600     107.860     345.280     341.540     103.070    0.000000     2.54000
     112.000     30.7000     96.7300     349.650     340.560     103.180  -0.0200000     2.52000
     112.100     29.0100     109.140     347.190     354.340     102.780  -0.0200000     2.49000
     112.200     32.9500     117.410     362.450     352.370     102.460    0.000000     2.48000
     112.300     31.2600     99.7500     372.780     361.230     102.450   0.0200000     2.49000
     112.400     31.1100     104.360     383.610     387.800     102.270   0.0200000     2.46000
     112.500     34.3800     102.770     395.420     390.750     102.250   0.0200000     2.41000
     112.600     39.0200     92.2700     391.980     389.770     102.220  -0.0100000     2.25000
     112.700     43.4300     56.8000     400.340     391.740     102.190    0.000000     2.03000
     112.800     47.0500     38.5000     426.920     397.640     102.350   0.0100000     1.73000
     112.900     55.1700     52.3400     445.130     450.790     102.370   0.0100000     1.52000
     113.000     62.6900     63.6400     470.230     480.320     102.310    0.000000     1.43000
     113.100     56.1100     62.2000     480.070     469.490     102.840  -0.0100000     1.43000
     113.200     50.4600     51.3900     481.540     469.490     103.760    0.000000     1.42000
     113.300     71.5900     32.1400     483.020     468.510     104.840    0.000000     1.38000
     113.400     72.0700     34.0500     492.860     475.400     104.060  -0.0100000     1.37000
     113.500     59.2400     34.6800     491.880     493.120     103.950  -0.0100000     1.40000
     113.600     59.9400     37.7000     496.310     502.960     103.780  -0.0100000     1.38000
     113.700     60.2800     25.9300     508.120     497.050     107.490  -0.0100000     1.37000
     113.800     61.4700     20.8400     653.300     492.130     106.180  -0.0100000     1.34000
     113.900     66.5500     17.3400     656.170     507.980     111.720    0.000000     1.32000
     114.000     64.2300     17.6600     527.800     516.740     103.010    0.000000     1.33000
     114.100     59.2600     22.1100     522.880     510.830     103.360    0.000000     1.33000
     114.200     60.4500     27.5200     520.720     511.820     103.480    0.000000     1.35000
     114.300     59.0600     38.9800     508.610     497.050     104.070   0.0100000     1.42000
     114.400     56.2400     65.3900     499.750     500.990     104.700   0.0200000     1.63000
     114.500     52.4100     91.4800     502.710     500.990     101.870  -0.0200000     1.72000
     114.600     55.9600     96.2500     492.860     476.380     101.860  -0.0100000     1.77000
     114.700     58.0900     54.7300     488.430     469.590     101.890  -0.0100000     1.68000
     114.800     62.0800     35.6400     490.900     471.460     102.290  -0.0100000     1.45000
     114.900     69.2900     25.3000     560.450     472.450     111.290    0.000000     1.40000
     115.000     74.5700     22.5900     656.170     481.300     102.070   0.0100000     1.39000
     115.100     65.2800     28.8000     656.170     474.420     102.140   0.0100000     1.38000
     115.200     57.4300     39.4500     656.170     465.560     102.110    0.000000     1.38000
     115.300     56.1500     18.6100     656.170     462.600     102.030  -0.0100000     1.39000
     115.400     58.0300     18.4500     656.170     475.400     107.460    0.000000     1.39000
     115.500     68.0100     32.4500     592.270     475.500     102.040    0.000000     1.43000
     115.600     69.2500     37.2300     579.480     472.450     101.990  -0.0200000     1.45000
     115.700     58.8100     42.9500     577.020     460.630     101.980  -0.0200000     1.46000
     115.800     55.9100     49.9500     576.670     457.680     102.180  -0.0200000     1.54000
     115.900     60.3500     50.5900     578.990     449.810     102.100  -0.0200000     1.48000
     116.000     66.5700     39.7700     567.180     445.870     102.200  -0.0100000     1.50000
     116.100     69.4600     64.9100     656.170     453.740     102.190  -0.0100000     1.54000
