#------------------------------------------------------------
~VERSION INFORMATION
VERS.               2.0  :CWLS LOG ASCII STANDARD - VERSION 2.0
WRAP.                NO  :ONE LINE PER DEPTH STEP
#------------------------------------------------------------
~WELL INFORMATION
STRT.M         0.000000  :FIRST INDEX VALUE
STOP.M          186.000  :LAST INDEX VALUE
STEP.M         0.100000  :STEP
NULL.           -999.25  :NULL VALUE
COMP.  FANTASY COAL LTD  :Company
WELL.            ALT118  :Well
FLD.        Cassa North  :Field
LOC.               T123  :LOC
SRVC.     First Logging  :SRVC
CTRY.        Mozambique  :Country
PROV.              Tete  :Province
STAT.                    :State
CNTY.                    :County
DATE.       29-OCT-2012  :Date
UWI.          123456789  :UWI
#------------------------------------------------------------
~CURVE INFORMATION
DEPT.M                   :DEPTH
RPOR.PERC                :SANDST NEUTRON POROSITY
GRDE.GAPI                :GAMMA FROM DENSITY TOOL
MC4F.US/M                :40 CM TRANSIT TIME R2R4
MC2F.US/M                :20 CM TRANSIT TIME R1R2
CADE.MM                  :CALIPER FROM DENSITY TOOL
DECR.G/C3                :DENSITY CORRECTION
CODE.G/C3                :COMPENSATED DENSITY
#------------------------------------------------------------
~PARAMETER INFORMATION
Water Level.  36m        :WATER LEVEL  
DrillerTD.    185.58m    :TOTAL DEPTH DRILLER
Logger TD.    185.7m     :TOTAL DEPTH LOGGER
Elevation.    55.2m      :ELEVATION          
Casing size.  4"         :CASING SIZE
Casing Weight. STEEL     :CASING TYPE
Casing From.  G.L.       :CASING FROM
Casing To.    30m        :CASING TO
Bit size.     HQ(96mm)   :BIT SIZE
#------------------------------------------------------------
~OTHER
#------------------------------------------------------------
~A   DEPT[M]        RPOR        GRDE        MC4F        MC2F        CADE        DECR        CODE
# ...
     66.4000     33.7500     131.410     345.720     344.500     102.810   0.0100000     2.52000
     66.5000     35.6100     128.070     349.160     348.430     102.800    0.000000     2.51000
     66.6000     34.3900     98.1600     350.250     352.370     102.740   0.0300000     2.58000
     66.7000     35.8600     157.980     359.990     355.420     102.790  -0.0100000     2.46000
     66.8000     33.9200     146.200     363.430     364.180     102.800   0.0100000     2.53000
     66.9000     34.8600     147.000     368.850     373.040     102.860   0.0100000     2.53000
     67.0000     35.2100     164.020     365.990     364.180     102.770   0.0100000     2.53000
     67.1000     33.6100     99.7500     366.390     359.260     102.780   0.0100000     2.54000
     67.2000     32.8300     128.550     365.400     368.120     102.740    0.000000     2.50000
     67.3000     38.0300     141.270     372.780     376.980     102.790  -0.0100000     2.49000
     67.4000     39.8000     140.160     376.720     375.990     102.770   0.0100000     2.54000
     67.5000     39.2300     120.430     381.640     379.040     102.820  -0.0100000     2.48000
     67.6000     35.8200     137.610     379.670     382.780     102.790   0.0100000     2.54000
     67.7000     34.5600     155.430     380.170     382.880     102.770  -0.0100000     2.45000
     67.8000     35.7200     125.200     379.280     379.930     102.740  -0.0200000     2.45000
     67.9000     37.0600     151.450     379.580     379.930     102.800   0.0100000     2.52000
     68.0000     35.0700     142.390     381.150     382.880     102.740  -0.0100000     2.48000
     68.1000     36.3300     158.610     384.600     385.830     102.770   0.0200000     2.55000
     68.2000     37.8300     138.890     387.060     388.790     102.730    0.000000     2.52000
     68.3000     31.5600     122.020     389.520     388.890     102.710  -0.0100000     2.49000
     68.4000     31.5200     118.680     387.550     392.720     102.710  -0.0200000     2.50000
     68.5000     36.6100     122.820     404.770     394.690     102.730  -0.0200000     2.46000
     68.6000     37.7500     108.020     422.590     406.500     102.760  -0.0400000     2.21000
     68.7000     43.7300     110.570     440.210     449.810     102.960  -0.0100000     1.97000
     68.8000     55.8300     79.3900     451.030     468.510     103.600   0.0100000     1.86000
     68.9000     58.7400     100.070     455.460     459.650     102.650   0.0200000     1.84000
     69.0000     49.2400     106.270     428.390     441.940     101.810    0.000000     2.04000
     69.1000     44.7700     105.950     399.360     406.600     101.290   0.0100000     2.29000
     69.2000     40.6700     102.930     371.800     357.290     101.400   0.0100000     2.41000
     69.3000     33.1300     109.140     350.150     334.650     101.310  -0.0100000     2.45000
     69.4000     32.3700     88.7700     337.890     343.510     101.280    0.000000     2.48000
     69.5000     34.8000     115.500     341.290     344.500     101.340  -0.0100000     2.47000
     69.6000     32.1000     80.1800     321.110     343.510     101.330  -0.0100000     2.52000
     69.7000     30.5600     73.5000     292.080     301.190     101.380    0.000000     2.59000
     69.8000     27.7000     45.6600     269.930     243.120     101.400  -0.0100000     2.59000
     69.9000     23.0800     58.7000     269.440     236.230     101.350   0.0100000     2.63000
     70.0000     21.2000     67.1400     286.170     285.440     101.410    0.000000     2.55000
     70.1000     23.9700     96.2500     312.750     329.730     101.360    0.000000     2.50000
     70.2000     29.7600     107.860     336.370     332.680     101.330   0.0100000     2.51000
     70.3000     31.5400     117.730     337.350     341.540     101.390    0.000000     2.49000
     70.4000     29.9000     101.340     327.020     341.540     101.380    0.000000     2.52000
     70.5000     33.6400     76.6800     327.510     313.000     101.360   0.0100000     2.56000
     70.6000     34.1000     82.8900     328.990     315.950     101.580    0.000000     2.53000
     70.7000     33.6200     105.160     336.860     347.450     101.540    0.000000     2.50000
     70.8000     37.0400     103.090     356.050     357.290     101.600    0.000000     2.47000
     70.9000     38.3900     104.840     353.590     363.200     101.520  -0.0100000     2.45000
     71.0000     37.5900     88.6100     351.130     351.390     101.530    0.000000     2.50000
     71.1000     32.3500     95.6100     355.070     339.570     101.550   0.0100000     2.52000
     71.2000     30.4100     113.270     351.130     359.260     101.600  -0.0100000     2.46000
     71.3000     33.8600     114.230     357.040     365.170     101.490    0.000000     2.50000
     71.4000     35.9400     104.680     354.580     359.260     101.490    0.000000     2.50000
     71.5000     35.9600     85.5900     353.100     346.460     101.460    0.000000     2.49000
     71.6000     35.5100     82.0900     350.150     349.520     101.470   0.0100000     2.52000
     71.7000     36.1200     90.2000     342.270     363.200     101.540  -0.0100000     2.47000
     71.8000     34.0600     93.2300     351.620     339.570     101.410  -0.0100000     2.48000
     71.9000     28.9700     90.2000     345.820     340.560     101.310   0.0200000     2.55000
     72.0000     28.1800     87.6600     324.060     356.310     101.340    0.000000     2.51000
     72.1000     28.2900     62.3600     298.470     317.920     101.310    0.000000     2.58000
     72.2000     26.8800     49.1600     287.150     246.070     101.280  -0.0200000     2.55000
     72.3000     27.7900     49.6400     281.740     251.980     101.310    0.000000     2.57000
     72.4000     29.0600     74.7700     297.980     317.920     101.370   0.0200000     2.55000
     72.5000     30.2500     80.8200     321.110     339.570     101.430   0.0100000     2.53000
     72.6000     29.3700     51.2300     306.840     327.860     101.700   0.0200000     2.58000
     72.7000     29.0900     51.2300     284.250     274.610     101.660   0.0100000     2.61000
     72.8000     26.6800     47.4100     276.330     241.150     101.600  -0.0100000     2.57000
     72.9000     22.7600     69.0500     281.300     267.720     101.820   0.0200000     2.62000
     73.0000     22.6500     66.8200     291.090     316.940     101.820    0.000000     2.54000
     73.1000     25.4800     66.8200     311.760     307.090     101.830    0.000000     2.52000
     73.2000     28.3000     66.3400     322.100     306.210     101.810    0.000000     2.52000
     73.3000     27.5800     86.2300     321.600     337.610     101.880   0.0100000     2.50000
     73.4000     29.8500     89.8900     329.480     339.570     101.840   0.0100000     2.50000
     73.5000     29.5900     88.4500     327.070     322.840     101.890   0.0200000     2.57000
     73.6000     28.6500     91.0000     321.110     316.940     101.890  -0.0100000     2.52000
     73.7000     28.7800     93.3900     319.630     320.870     101.900   0.0100000     2.55000
     73.8000     31.3500     116.140     329.480     320.870     101.800    0.000000     2.50000
     73.9000     31.0300     103.090     331.940     339.570     101.840   0.0200000     2.53000
     74.0000     32.1600     114.550     338.830     342.530     101.870   0.0100000     2.51000
     74.1000     34.2500     81.1400     326.030     336.620     101.950   0.0200000     2.59000
     74.2000     31.8200     84.0000     319.640     312.020     101.950  -0.0100000     2.53000
     74.3000     28.8700     94.6600     318.210     306.110     101.990    0.000000     2.57000
     74.4000     27.4400     96.8900     318.160     325.790     101.970   0.0100000     2.53000
     74.5000     30.2200     66.8200     320.620     334.650     102.060   0.0200000     2.57000
     74.6000     31.9900     81.3000     320.130     315.950     102.100  -0.0100000     2.52000
