#------------------------------------------------------------
~VERSION INFORMATION
VERS.               2.0  :CWLS LOG ASCII STANDARD - VERSION 2.0
WRAP.                NO  :ONE LINE PER DEPTH STEP
#------------------------------------------------------------
~WELL INFORMATION
STRT.M         0.000000  :FIRST INDEX VALUE
STOP.M          186.000  :LAST INDEX VALUE
STEP.M         0.100000  :STEP
NULL.           -999.25  :NULL VALUE
COMP.  FANTASY COAL LTD  :Company
WELL.            ALT118  :Well
FLD.        Cassa North  :Field
LOC.               T123  :LOC
SRVC.     First Logging  :SRVC
CTRY.        Mozambique  :Country
PROV.              Tete  :Province
STAT.                    :State
CNTY.                    :County
DATE.       29-OCT-2012  :Date
UWI.          123456789  :UWI
#------------------------------------------------------------
~CURVE INFORMATION
DEPT.M                   :DEPTH
RPOR.PERC                :SANDST NEUTRON POROSITY
GRDE.GAPI                :GAMMA FROM DENSITY TOOL
MC4F.US/M                :40 CM TRANSIT TIME R2R4
MC2F.US/M                :20 CM TRANSIT TIME R1R2
CADE.MM                  :CALIPER FROM DENSITY TOOL
DECR.G/C3                :DENSITY CORRECTION
CODE.G/C3                :COMPENSATED DENSITY
#------------------------------------------------------------
~PARAMETER INFORMATION
Water Level.  36m        :WATER LEVEL  
DrillerTD.    185.58m    :TOTAL DEPTH DRILLER
Logger TD.    185.7m     :TOTAL DEPTH LOGGER
Elevation.    55.2m      :ELEVATION          
Casing size.  4"         :CASING SIZE
Casing Weight. STEEL     :CASING TYPE
Casing From.  G.L.       :CASING FROM
Casing To.    30m        :CASING TO
Bit size.     HQ(96mm)   :BIT SIZE
#------------------------------------------------------------
~OTHER
#------------------------------------------------------------
~A   DEPT[M]        RPOR        GRDE        MC4F        MC2F        CADE        DECR        CODE
# ...
     174.300     40.6300     52.5000     386.070     371.070     98.4700   0.0400000     1.92000
     174.400     47.9300     48.6800     411.170     404.630     98.4300   0.0200000     1.64000
     174.500     59.6900     57.5900     429.870     443.900     98.4500    0.000000     1.47000
     174.600     64.3200     41.6800     446.600     451.780     98.5000   0.0100000     1.47000
     174.700     65.7900     43.7500     455.070     449.810     98.4400   0.0100000     1.49000
     174.800     67.2000     42.8000     450.050     453.740     98.5000   0.0200000     1.46000
     174.900     61.2500     40.7300     451.530     447.840     98.4700   0.0200000     1.43000
     175.000     60.9800     44.5500     447.590     446.850     98.4700   0.0100000     1.39000
     175.100     62.7000     44.0700     447.590     438.980     98.5200    0.000000     1.37000
     175.200     66.4100     59.3400     447.100     435.040     98.5000    0.000000     1.43000
     175.300     72.9400     85.4300     452.020     438.980     98.4500    0.000000     1.43000
     175.400     73.2300     48.2000     453.000     438.000     98.4700   0.0100000     1.40000
     175.500     72.1800     42.3200     443.650     442.920     98.4600   0.0300000     1.49000
     175.600     70.0400     47.2500     435.780     441.930     98.5300  -0.0300000     1.49000
     175.700     57.2500     41.3600     438.730     423.230     98.6600  -0.0200000     1.52000
     175.800     53.0900     20.8400     437.250     429.140     98.7400    0.000000     1.55000
     175.900     62.1800     21.4800     442.180     451.770     98.6600   0.0100000     1.33000
     176.000     61.8200     17.6600     451.530     452.760     98.8100   0.0100000     1.28000
     176.100     58.1600     17.1800     451.530     449.810     99.9000   0.0100000     1.28000
     176.200     74.3600     24.8200     449.560     447.840     98.5100   0.0100000     1.29000
     176.300     77.7000     17.6600     447.590     444.880     98.8500   0.0100000     1.29000
     176.400     68.2300     20.3600     446.600     444.880     98.5000   0.0100000     1.31000
     176.500     66.2100     24.0200     446.600     448.820     98.5400   0.0100000     1.32000
     176.600     68.4200     25.1400     444.640     452.760     99.2300   0.0100000     1.31000
     176.700     70.3200     28.4800     445.620     450.790     100.510   0.0100000     1.32000
     176.800     64.9400     21.3200     448.570     444.880     99.4900   0.0200000     1.32000
     176.900     64.8300     23.7000     447.590     447.840     98.6700   0.0200000     1.33000
     177.000     66.5000     29.7500     444.140     452.760     98.4000   0.0300000     1.39000
     177.100     66.3600     44.0700     433.810     447.840     98.4500    0.000000     1.46000
     177.200     66.2900     46.3000     429.380     425.200     98.0000    0.000000     1.49000
     177.300     71.2300     38.9800     427.410     416.340     97.9600  -0.0200000     1.48000
     177.400     93.1000     30.2300     429.380     437.990     97.9700  -0.0200000     1.40000
     177.500     90.6000     22.4300     440.700     444.880     98.0100  -0.0100000     1.34000
     177.600     73.5500     19.5700     446.110     443.900     98.0600    0.000000     1.34000
     177.700     66.7600     10.9800     439.220     450.790     98.0200   0.0100000     1.30000
     177.800     70.3900     21.1600     440.700     443.900     98.0500   0.0200000     1.30000
     177.900     61.6200     31.3400     437.750     437.990     98.1000   0.0400000     1.42000
     178.000     61.5300     59.0200     428.400     437.010     98.0300   0.0100000     1.54000
     178.100     63.2100     71.4300     425.930     427.170     98.0400    0.000000     1.62000
     178.200     63.8200     73.5000     420.520     419.290     98.0300   0.0200000     1.82000
     178.300     70.8100     61.2500     398.870     424.210     98.0200    0.000000     1.85000
     178.400     70.3800     76.8400     404.770     381.890     97.9800  -0.0300000     1.75000
     178.500     62.8900     74.4500     412.160     387.800     98.0700    0.000000     1.76000
     178.600     63.3400     60.7700     420.030     442.910     98.0400   0.0200000     1.54000
     178.700     81.9100     35.0000     444.140     453.740     98.2400   0.0200000     1.32000
     178.800     77.8500     23.2300     444.140     447.830     97.9700   0.0200000     1.28000
     178.900     66.9000     43.7500     438.730     441.930     97.9700   0.0300000     1.34000
     179.000     74.9900     55.2000     431.840     436.020     97.9200  -0.0100000     1.35000
     179.100     75.3600     77.8000     431.840     429.130     97.9600    0.000000     1.41000
     179.200     64.5100     49.4800     432.330     427.170     98.0100  -0.0100000     1.44000
     179.300     67.4900     30.8600     433.320     443.900     98.0700  -0.0100000     1.36000
     179.400     69.8500     25.9300     439.220     449.800     96.5200    0.000000     1.33000
     179.500     54.8900     22.4300     444.140     448.820     96.5200   0.0100000     1.29000
     179.600     60.8300     31.0200     444.640     449.110     96.4600   0.0400000     1.40000
     179.700     62.3200     43.4300     412.160     444.880     96.5100   0.0600000     1.74000
     179.800     50.4500     101.660     380.170     393.700     96.4800   0.0300000     2.06000
     179.900     40.9900     107.550     344.830     320.870     96.4700   0.0100000     2.37000
     180.000     32.8900     107.700     313.730     299.210     96.4700   0.0100000     2.51000
     180.100     30.3400     139.520     300.440     298.230     96.4600   0.0100000     2.52000
     180.200     29.2400     137.300     302.900     298.230     96.4700   0.0200000     2.55000
     180.300     28.6400     101.980     301.430     297.240     96.4700   0.0300000     2.57000
     180.400     29.4000     117.250     299.460     301.180     96.4900   0.0300000     2.56000
     180.500     30.6700     101.820     299.950     298.230     96.4500   0.0200000     2.53000
     180.600     30.7400     124.090     302.410     298.230     96.3500   0.0200000     2.54000
     180.700     32.1900     127.590     305.360     303.150     96.3800    0.000000     2.52000
     180.800     35.2300     115.500     305.360     310.040     96.3000  -0.0100000     2.53000
     180.900     33.8800     104.200     307.820     308.070     96.2400  -0.0100000     2.52000
     181.000     30.4600     135.390     307.330     305.120     96.1400   0.0200000     2.59000
     181.100     30.2300     122.820     303.890     305.120     96.1800   0.0200000     2.55000
     181.200     29.5600     132.520     303.890     308.070     96.1700   0.0200000     2.54000
     181.300     31.1600     130.450     305.860     306.100     96.1800   0.0200000     2.52000
     181.400     32.2400     122.980     313.240     314.960     96.1600   0.0300000     2.54000
     181.500     31.8300     104.520     317.180     320.870     96.1900   0.0100000     2.48000
     181.600     33.9500     106.750     322.590     324.800     96.1400   0.0200000     2.48000
     181.700     32.9700     94.3400     321.110     328.740     96.1400   0.0100000     2.46000
     181.800     34.6200     101.340     318.650     324.800     96.1400   0.0100000     2.47000
     181.900     36.8700     95.6100     312.700     309.050     96.1500   0.0200000     2.53000
     182.000     33.2100     111.680     303.400     302.170     96.1300   0.0200000     2.56000
     182.100     27.2400     101.980     300.440     303.150     96.1100   0.0200000     2.56000
     182.200     27.3700     96.8900     301.920     300.200     96.1400   0.0200000     2.55000
     182.300     30.3200     102.140     300.940     304.130     96.0200   0.0100000     2.51000
     182.400     31.8500     107.390     297.490     301.180     95.9800   0.0100000     2.51000
     182.500     32.4300     98.3200     301.480     290.350     95.9300   0.0200000     2.55000
